{"_id":{"$oid":"59199e4c2c8c462786757b69"},"title":"雪后佛光寺 · 山西","url":"https://www.douban.com/photos/album/1640509215/","author":"子文东","latitude":38.8700590126,"longitude":113.3939880339,"province_ab":"SX","province":"山西省","town_code":"","town_name":"","taga":"","tagb":"","tagc":"","tagd":"","tage":"","commenta":"","commentb":"","updated":"True","lastModified":{"$date":"2017-05-17T14:12:33.549Z"},"contag":""}
{"_id":{"$oid":"59199e4c2c8c462786757b6a"},"title":"云岗三则","url":"https://www.douban.com/note/167523057/","author":"希腊小庙","latitude":40.1110582129,"longitude":113.1329881115,"province_ab":"SX","province":"山西省","town_code":"","town_name":"","taga":"","tagb":"","tagc":"","tagd":"","tage":"","commenta":"","commentb":"石窟","updated":"True","lastModified":{"$date":"2017-05-17T14:12:33.551Z"},"contag":""}
{"_id":{"$oid":"59199e4c2c8c462786757b6b"},"title":"下交汤帝庙的宋金线刻石柱","url":"https://www.douban.com/note/350083240/","author":"NAZI","latitude":35.6686910074,"longitude":112.7882929763,"province_ab":"SX","province":"山西省","town_code":"","town_name":"","taga":"","tagb":"","tagc":"","tagd":"","tage":"","commenta":"","commentb":"晋城市阳城县","updated":"True","lastModified":{"$date":"2017-05-17T14:12:33.551Z"},"contag":""}
{"_id":{"$oid":"59199e4c2c8c462786757b6c"},"title":"朔州崇福寺","url":"https://www.douban.com/note/272800945/","author":"NAZI","latitude":39.33,"longitude":112.43,"province_ab":"SX","province":"山西省","town_code":"","town_name":"","taga":"","tagb":"","tagc":"","tagd":"","tage":"","commenta":"","commentb":"","updated":"True","lastModified":{"$date":"2017-05-17T14:12:33.552Z"},"contag":""}
{"_id":{"$oid":"59199e4c2c8c462786757b6d"},"title":"元旦晋行中 平阳府元代戏台寻访记","url":"https://www.douban.com/note/272294428/","author":"NAZI","latitude":36.05,"longitude":111.3,"province_ab":"SX","province":"山西省","town_code":"","town_name":"","taga":"","tagb":"","tagc":"","tagd":"","tage":"","commenta":"","commentb":"临汾市","updated":"True","lastModified":{"$date":"2017-05-17T14:12:33.552Z"},"contag":""}
{"_id":{"$oid":"59199e4c2c8c462786757b6e"},"title":"元旦晋行中 山西晋中南若干琐事","url":"https://www.douban.com/note/256479168/","author":"NAZI","latitude":"","longitude":"","province_ab":"SX","province":"山西省","town_code":"","town_name":"","taga":"","tagb":"","tagc":"","tagd":"","tage":"","commenta":"","commentb":"","updated":"True","lastModified":{"$date":"2017-05-17T14:12:33.553Z"},"contag":""}
{"_id":{"$oid":"59199e4c2c8c462786757b6f"},"title":"稷王山胜迹","url":"https://www.douban.com/photos/album/1639387924/","author":"NAZI","latitude":35.6,"longitude":110.97,"province_ab":"SX","province":"山西省","town_code":"","town_name":"","taga":"","tagb":"","tagc":"","tagd":"","tage":"","commenta":"","commentb":"稷山","updated":"True","lastModified":{"$date":"2017-05-17T14:12:33.553Z"},"contag":""}
{"_id":{"$oid":"59199e4c2c8c462786757b70"},"title":"苏三离了洪洞县","url":"https://www.douban.com/photos/album/1637688255/","author":"NAZI","latitude":36.25,"longitude":111.67,"province_ab":"SX","province":"山西省","town_code":"","town_name":"","taga":"","tagb":"","tagc":"","tagd":"","tage":"","commenta":"","commentb":"","updated":"True","lastModified":{"$date":"2017-05-17T14:12:33.554Z"},"contag":""}
{"_id":{"$oid":"59199e4c2c8c462786757b71"},"title":"平阳府元代戏台","url":"https://www.douban.com/photos/album/1635258832/","author":"NAZI","latitude":36.05,"longitude":111.3,"province_ab":"SX","province":"山西省","town_code":"","town_name":"","taga":"","tagb":"","tagc":"","tagd":"","tage":"","commenta":"","commentb":"临汾","updated":"True","lastModified":{"$date":"2017-05-17T14:12:33.555Z"},"contag":""}
{"_id":{"$oid":"59199e4c2c8c462786757b72"},"title":"大朝台","url":"https://www.douban.com/photos/album/1634430477/","author":"NAZI","latitude":38.73,"longitude":113.25,"province_ab":"SX","province":"山西省","town_code":"","town_name":"","taga":"","tagb":"","tagc":"","tagd":"","tage":"","commenta":"","commentb":"五台","updated":"True","lastModified":{"$date":"2017-05-17T14:12:33.555Z"},"contag":""}
{"_id":{"$oid":"59199e4c2c8c462786757b7d"},"title":"长春忠灵庙 | 被遗忘的靖国神社","url":"https://www.douban.com/note/544004125/","author":"子文东","latitude":43.8160454637,"longitude":125.3235370697,"province_ab":"JL","province":"吉林省","town_code":"","town_name":"","taga":"","tagb":"","tagc":"","tagd":"","tage":"","commenta":"","commentb":"","updated":"True","lastModified":{"$date":"2017-05-17T14:12:33.556Z"},"contag":""}
{"_id":{"$oid":"59199e4c2c8c462786757b7e"},"title":"雪中故乡 | 车城","url":"https://www.douban.com/photos/album/1643403949/","author":"子文东","latitude":43.8160454637,"longitude":125.3235370697,"province_ab":"JL","province":"吉林省","town_code":"","town_name":"","taga":"","tagb":"","tagc":"","tagd":"","tage":"","commenta":"","commentb":"","updated":"True","lastModified":{"$date":"2017-05-17T14:12:33.557Z"},"contag":""}
{"_id":{"$oid":"59199e4c2c8c462786757b7f"},"title":"吉林乌拉","url":"https://www.douban.com/photos/album/1632923835/","author":"NAZI","latitude":43.83,"longitude":126.55,"province_ab":"JL","province":"吉林省","town_code":"","town_name":"","taga":"","tagb":"","tagc":"","tagd":"","tage":"","commenta":"","commentb":"","updated":"True","lastModified":{"$date":"2017-05-17T14:12:33.557Z"},"contag":""}
{"_id":{"$oid":"59199e4c2c8c462786757b80"},"title":"沈阳西关回回营","url":"https://www.douban.com/note/597814759/","author":"王东四","latitude":41.804073704,"longitude":123.4429918121,"province_ab":"LN","province":"辽宁省","town_code":"","town_name":"","taga":"","tagb":"","tagc":"","tagd":"","tage":"","commenta":"","commentb":"","updated":"True","lastModified":{"$date":"2017-05-17T14:12:33.558Z"},"contag":""}
{"_id":{"$oid":"59199e4c2c8c462786757b82"},"title":"奉天肇新窑业公司办公楼","url":"https://site.douban.com/126922/widget/notes/4986652/note/196782268/","author":"scania","latitude":41.804073704,"longitude":123.4429918121,"province_ab":"LN","province":"辽宁省","town_code":"","town_name":"","taga":"","tagb":"","tagc":"","tagd":"","tage":"","commenta":"","commentb":"","updated":"True","lastModified":{"$date":"2017-05-17T14:12:33.559Z"},"contag":""}
{"_id":{"$oid":"59199e4c2c8c462786757b83"},"title":"日本警察宿舍","url":"https://site.douban.com/126922/widget/notes/4986652/note/255789345/","author":"scania","latitude":41.804073704,"longitude":123.4429918121,"province_ab":"LN","province":"辽宁省","town_code":"","town_name":"","taga":"","tagb":"","tagc":"","tagd":"","tage":"","commenta":"","commentb":"已拆除","updated":"True","lastModified":{"$date":"2017-05-17T14:12:33.559Z"},"contag":""}
{"_id":{"$oid":"59199e4c2c8c462786757b84"},"title":"奉天满铁公所","url":"https://site.douban.com/126922/widget/notes/4986652/note/269237862/","author":"scania","latitude":41.804073704,"longitude":123.4429918121,"province_ab":"LN","province":"辽宁省","town_code":"","town_name":"","taga":"","tagb":"","tagc":"","tagd":"","tage":"","commenta":"","commentb":"","updated":"True","lastModified":{"$date":"2017-05-17T14:12:33.560Z"},"contag":""}
{"_id":{"$oid":"59199e4c2c8c462786757b85"},"title":"东陵火车站","url":"https://site.douban.com/126922/widget/notes/4986652/note/203096026/","author":"scania","latitude":41.804073704,"longitude":123.4429918121,"province_ab":"LN","province":"辽宁省","town_code":"","town_name":"","taga":"","tagb":"","tagc":"","tagd":"","tage":"","commenta":"","commentb":"","updated":"True","lastModified":{"$date":"2017-05-17T14:12:33.561Z"},"contag":""}
{"_id":{"$oid":"59199e4c2c8c462786757b86"},"title":"大连 连锁街 常盘映画馆","url":"https://site.douban.com/126922/widget/notes/4986652/note/271487742/","author":"scania","latitude":38.9202684879,"longitude":121.6324055551,"province_ab":"LN","province":"辽宁省","town_code":"","town_name":"","taga":"","tagb":"","tagc":"","tagd":"","tage":"","commenta":"","commentb":"","updated":"True","lastModified":{"$date":"2017-05-17T14:12:33.561Z"},"contag":""}
{"_id":{"$oid":"59199e4c2c8c462786757b87"},"title":"中山广场（一）广场的基本情况名称更变","url":"https://site.douban.com/126922/widget/notes/4986652/note/275850492/","author":"scania","latitude":41.7945936655,"longitude":123.4066576505,"province_ab":"LN","province":"辽宁省","town_code":"","town_name":"","taga":"","tagb":"","tagc":"","tagd":"","tage":"","commenta":"","commentb":"","updated":"True","lastModified":{"$date":"2017-05-17T14:12:33.562Z"},"contag":""}
{"_id":{"$oid":"59199e4c2c8c462786757b88"},"title":"中山广场（二）广场周围的建筑介绍","url":"https://site.douban.com/126922/widget/notes/4986652/note/276645784/","author":"scania","latitude":41.7945936655,"longitude":123.4066576506,"province_ab":"LN","province":"辽宁省","town_code":"","town_name":"","taga":"","tagb":"","tagc":"","tagd":"","tage":"","commenta":"","commentb":"","updated":"True","lastModified":{"$date":"2017-05-17T14:12:33.562Z"},"contag":""}
{"_id":{"$oid":"59199e4c2c8c462786757b89"},"title":"中山广场（三）广场的《毛泽东思想万岁》雕塑群","url":"https://site.douban.com/126922/widget/notes/4986652/note/278012117/","author":"scania","latitude":41.7945936655,"longitude":123.4066576507,"province_ab":"LN","province":"辽宁省","town_code":"","town_name":"","taga":"","tagb":"","tagc":"","tagd":"","tage":"","commenta":"","commentb":"","updated":"True","lastModified":{"$date":"2017-05-17T14:12:33.563Z"},"contag":""}
{"_id":{"$oid":"59199e4c2c8c462786757b8b"},"title":"沈阳最早的汽水厂旧址","url":"https://site.douban.com/126922/widget/notes/4986652/note/225837868/","author":"scania","latitude":41.7945936655,"longitude":123.4066576508,"province_ab":"LN","province":"辽宁省","town_code":"","town_name":"","taga":"","tagb":"","tagc":"","tagd":"","tage":"","commenta":"","commentb":"","updated":"True","lastModified":{"$date":"2017-05-17T14:12:33.563Z"},"contag":""}
{"_id":{"$oid":"59199e4c2c8c462786757b8c"},"title":"北门里教堂（1916-2013）","url":"https://site.douban.com/126922/widget/notes/4986652/note/284537578/","author":"scania","latitude":41.7945936655,"longitude":123.4066576509,"province_ab":"LN","province":"辽宁省","town_code":"","town_name":"","taga":"","tagb":"","tagc":"","tagd":"","tage":"","commenta":"","commentb":"一段城市记忆","updated":"True","lastModified":{"$date":"2017-05-17T14:12:33.564Z"},"contag":""}
{"_id":{"$oid":"59199e4c2c8c462786757b8d"},"title":"奉天满铁铁道总局","url":"https://site.douban.com/126922/widget/notes/4986652/note/194600815/","author":"scania","latitude":41.7945936655,"longitude":123.406657651,"province_ab":"LN","province":"辽宁省","town_code":"","town_name":"","taga":"","tagb":"","tagc":"","tagd":"","tage":"","commenta":"","commentb":"","updated":"True","lastModified":{"$date":"2017-05-17T14:12:33.564Z"},"contag":""}
{"_id":{"$oid":"59199e4c2c8c462786757b8e"},"title":"东三省官银号旧址","url":"https://site.douban.com/126922/widget/notes/4986652/note/193721417/","author":"scania","latitude":41.7945936655,"longitude":123.4066576511,"province_ab":"LN","province":"辽宁省","town_code":"","town_name":"","taga":"","tagb":"","tagc":"","tagd":"","tage":"","commenta":"","commentb":"照片出自：http://blog.sina.com.cn/u/1269835874","updated":"True","lastModified":{"$date":"2017-05-17T14:12:33.565Z"},"contag":""}
{"_id":{"$oid":"59199e4c2c8c462786757b8f"},"title":"沈阳站（1）百年老站房（1910）","url":"https://site.douban.com/126922/widget/notes/4986652/note/297808830/","author":"scania","latitude":41.7945936655,"longitude":123.4066576512,"province_ab":"LN","province":"辽宁省","town_code":"","town_name":"","taga":"","tagb":"","tagc":"","tagd":"","tage":"","commenta":"","commentb":"","updated":"True","lastModified":{"$date":"2017-05-17T14:12:33.565Z"},"contag":""}
{"_id":{"$oid":"59199e4c2c8c462786757b90"},"title":"沈阳站（2）站前的三座建筑","url":"https://site.douban.com/126922/widget/notes/4986652/note/299252296/","author":"scania","latitude":41.7945936655,"longitude":123.4066576513,"province_ab":"LN","province":"辽宁省","town_code":"","town_name":"","taga":"","tagb":"","tagc":"","tagd":"","tage":"","commenta":"","commentb":"","updated":"True","lastModified":{"$date":"2017-05-17T14:12:33.566Z"},"contag":""}
{"_id":{"$oid":"59199e4c2c8c462786757b91"},"title":"沈阳站（3）坦克碑","url":"https://site.douban.com/126922/widget/notes/4986652/note/300142667/","author":"scania","latitude":41.7945936655,"longitude":123.4066576514,"province_ab":"LN","province":"辽宁省","town_code":"","town_name":"","taga":"","tagb":"","tagc":"","tagd":"","tage":"","commenta":"","commentb":"照片均为转载","updated":"True","lastModified":{"$date":"2017-05-17T14:12:33.566Z"},"contag":""}
{"_id":{"$oid":"59199e4c2c8c462786757b92"},"title":"浑河八三隧道","url":"https://site.douban.com/126922/widget/notes/4986652/note/209845528/","author":"scania","latitude":41.7945936655,"longitude":123.4066576515,"province_ab":"LN","province":"辽宁省","town_code":"","town_name":"","taga":"","tagb":"","tagc":"","tagd":"","tage":"","commenta":"","commentb":"","updated":"True","lastModified":{"$date":"2017-05-17T14:12:33.567Z"},"contag":""}
{"_id":{"$oid":"59199e4c2c8c462786757b93"},"title":"平安座（1932）和平安广场的老照片","url":"https://site.douban.com/126922/widget/notes/4986652/note/309311808/","author":"scania","latitude":41.7945936655,"longitude":123.4066576516,"province_ab":"LN","province":"辽宁省","town_code":"","town_name":"","taga":"","tagb":"","tagc":"","tagd":"","tage":"","commenta":"","commentb":"","updated":"True","lastModified":{"$date":"2017-05-17T14:12:33.567Z"},"contag":""}
{"_id":{"$oid":"59199e4c2c8c462786757b95"},"title":"三洞桥现状","url":"https://site.douban.com/126922/widget/notes/4986652/note/329166534/","author":"scania","latitude":41.7945936655,"longitude":123.4066576518,"province_ab":"LN","province":"辽宁省","town_code":"","town_name":"","taga":"","tagb":"","tagc":"","tagd":"","tage":"","commenta":"","commentb":"","updated":"True","lastModified":{"$date":"2017-05-17T14:12:33.568Z"},"contag":""}
{"_id":{"$oid":"59199e4c2c8c462786757b96"},"title":"五里河V型纪念碑（2002）","url":"https://site.douban.com/126922/widget/notes/4986652/note/323743671/","author":"scania","latitude":41.7945936655,"longitude":123.4066576519,"province_ab":"LN","province":"辽宁省","town_code":"","town_name":"","taga":"","tagb":"","tagc":"","tagd":"","tage":"","commenta":"","commentb":"","updated":"True","lastModified":{"$date":"2017-05-17T14:12:33.568Z"},"contag":""}
{"_id":{"$oid":"59199e4c2c8c462786757b97"},"title":"东北大学校办工厂（1925-1926之间）","url":"https://site.douban.com/126922/widget/notes/4986652/note/326200163/","author":"scania","latitude":41.7945936655,"longitude":123.406657652,"province_ab":"LN","province":"辽宁省","town_code":"","town_name":"","taga":"","tagb":"","tagc":"","tagd":"","tage":"","commenta":"","commentb":"","updated":"True","lastModified":{"$date":"2017-05-17T14:12:33.569Z"},"contag":""}
{"_id":{"$oid":"59199e4c2c8c462786757b98"},"title":"奉天自动电话交换局大楼（1928）","url":"https://site.douban.com/126922/widget/notes/4986652/note/333111755/","author":"scania","latitude":41.7945936655,"longitude":123.4066576521,"province_ab":"LN","province":"辽宁省","town_code":"","town_name":"","taga":"","tagb":"","tagc":"","tagd":"","tage":"","commenta":"","commentb":"","updated":"True","lastModified":{"$date":"2017-05-17T14:12:33.569Z"},"contag":""}
{"_id":{"$oid":"59199e4c2c8c462786757b99"},"title":"奉海站车库之一（1927-1931之间）","url":"https://site.douban.com/126922/widget/notes/4986652/note/353149904/","author":"scania","latitude":41.7945936655,"longitude":123.4066576522,"province_ab":"LN","province":"辽宁省","town_code":"","town_name":"","taga":"","tagb":"","tagc":"","tagd":"","tage":"","commenta":"","commentb":"","updated":"True","lastModified":{"$date":"2017-05-17T14:12:33.570Z"},"contag":""}
{"_id":{"$oid":"59199e4c2c8c462786757b9a"},"title":"西塔俄国东正教堂（1912）","url":"https://site.douban.com/126922/widget/notes/4986652/note/359371881/","author":"scania","latitude":41.805763,"longitude":123.412677,"province_ab":"LN","province":"辽宁省","town_code":"","town_name":"","taga":"","tagb":"","tagc":"","tagd":"","tage":"","commenta":"","commentb":"","updated":"True","lastModified":{"$date":"2017-05-17T14:12:33.571Z"},"contag":""}
{"_id":{"$oid":"59199e4c2c8c462786757b9b"},"title":"辽宁大学怀远楼和彗星楼","url":"https://site.douban.com/126922/widget/notes/4986652/note/476070526/","author":"scania","latitude":41.832522,"longitude":123.427992,"province_ab":"LN","province":"辽宁省","town_code":"","town_name":"","taga":"","tagb":"","tagc":"","tagd":"","tage":"","commenta":"","commentb":"","updated":"True","lastModified":{"$date":"2017-05-17T14:12:33.572Z"},"contag":""}
{"_id":{"$oid":"59199e4c2c8c462786757b9c"},"title":"皇姑屯周边的老建筑（1）皇姑屯医院旧址","url":"https://site.douban.com/126922/widget/notes/4986652/note/481694705/","author":"scania","latitude":41.816473,"longitude":123.389393,"province_ab":"LN","province":"辽宁省","town_code":"","town_name":"","taga":"","tagb":"","tagc":"","tagd":"","tage":"","commenta":"","commentb":"","updated":"True","lastModified":{"$date":"2017-05-17T14:12:33.572Z"},"contag":""}
{"_id":{"$oid":"59199e4c2c8c462786757b9d"},"title":"皇姑屯周边的老建筑（2）腾飞车辆大修厂和动车所水塔","url":"https://site.douban.com/126922/widget/notes/4986652/note/482832642/","author":"scania","latitude":41.816473,"longitude":123.389393,"province_ab":"LN","province":"辽宁省","town_code":"","town_name":"","taga":"","tagb":"","tagc":"","tagd":"","tage":"","commenta":"","commentb":"","updated":"True","lastModified":{"$date":"2017-05-17T14:12:33.573Z"},"contag":""}
{"_id":{"$oid":"59199e4c2c8c462786757b9e"},"title":"皇姑屯周边的老建筑（3）皇姑屯车站警署旧址","url":"https://site.douban.com/126922/widget/notes/4986652/note/484388864/","author":"scania","latitude":41.813882,"longitude":123.399317,"province_ab":"LN","province":"辽宁省","town_code":"","town_name":"","taga":"","tagb":"","tagc":"","tagd":"","tage":"","commenta":"","commentb":"","updated":"True","lastModified":{"$date":"2017-05-17T14:12:33.574Z"},"contag":""}
{"_id":{"$oid":"59199e4c2c8c462786757b9f"},"title":"皇姑屯周边的老建筑（4）“铁路工程师住宅”","url":"https://site.douban.com/126922/widget/notes/4986652/note/485071728/","author":"scania","latitude":41.811667,"longitude":123.4014329,"province_ab":"LN","province":"辽宁省","town_code":"","town_name":"","taga":"","tagb":"","tagc":"","tagd":"","tage":"","commenta":"","commentb":"","updated":"True","lastModified":{"$date":"2017-05-17T14:12:33.575Z"},"contag":""}
{"_id":{"$oid":"59199e4c2c8c462786757ba0"},"title":"皇姑屯周边的老建筑（5）光明街铁路住宅","url":"https://site.douban.com/126922/widget/notes/4986652/note/554638312/","author":"scania","latitude":41.8095557531,"longitude":123.392605707,"province_ab":"LN","province":"辽宁省","town_code":"","town_name":"","taga":"","tagb":"","tagc":"","tagd":"","tage":"","commenta":"","commentb":"","updated":"True","lastModified":{"$date":"2017-05-17T14:12:33.575Z"},"contag":""}
{"_id":{"$oid":"59199e4c2c8c462786757ba1"},"title":"奉天会战沙河战役纪念碑（1911和1912年）","url":"https://site.douban.com/126922/widget/notes/4986652/note/524470421/","author":"scania","latitude":41.593587,"longitude":123.406382,"province_ab":"LN","province":"辽宁省","town_code":"","town_name":"","taga":"","tagb":"","tagc":"","tagd":"","tage":"","commenta":"","commentb":"","updated":"True","lastModified":{"$date":"2017-05-17T14:12:33.576Z"},"contag":""}
{"_id":{"$oid":"59199e4c2c8c462786757ba2"},"title":"工农路奉海铁路住宅","url":"https://site.douban.com/126922/widget/notes/4986652/note/557849006/","author":"scania","latitude":41.8241756,"longitude":123.4988853,"province_ab":"LN","province":"辽宁省","town_code":"","town_name":"","taga":"","tagb":"","tagc":"","tagd":"","tage":"","commenta":"","commentb":"","updated":"True","lastModified":{"$date":"2017-05-17T14:12:33.576Z"},"contag":""}
{"_id":{"$oid":"59199e4c2c8c462786757ba4"},"title":"连锁街 常盘映画馆","url":"https://site.douban.com/126922/widget/notes/4986652/note/271487742/","author":"scania","latitude":38.9188872906,"longitude":121.6312543,"province_ab":"LN","province":"辽宁省","town_code":"","town_name":"","taga":"","tagb":"","tagc":"","tagd":"","tage":"","commenta":"","commentb":"","updated":"True","lastModified":{"$date":"2017-05-17T14:12:33.577Z"},"contag":""}
{"_id":{"$oid":"59199e4c2c8c462786757ba5"},"title":"满铁瓦房店医院旧址","url":"https://site.douban.com/126922/widget/notes/4986652/note/575794036/","author":"scania","latitude":39.6250553816,"longitude":122.0117646534,"province_ab":"LN","province":"辽宁省","town_code":"","town_name":"","taga":"","tagb":"","tagc":"","tagd":"","tage":"","commenta":"","commentb":"","updated":"True","lastModified":{"$date":"2017-05-17T14:12:33.577Z"},"contag":""}
{"_id":{"$oid":"59199e4c2c8c462786757ba6"},"title":"东关街旧照（2013.4）","url":"https://site.douban.com/126922/widget/notes/4986652/note/590026264/","author":"scania","latitude":38.9201391592,"longitude":121.621974801,"province_ab":"LN","province":"辽宁省","town_code":"","town_name":"","taga":"","tagb":"","tagc":"","tagd":"","tage":"","commenta":"","commentb":"","updated":"True","lastModified":{"$date":"2017-05-17T14:12:33.578Z"},"contag":""}
{"_id":{"$oid":"59199e4c2c8c462786757ba7"},"title":"东北交通大学旧址（1928）","url":"https://site.douban.com/126922/widget/notes/4986652/note/286748492/","author":"scania","latitude":41.1275444732,"longitude":121.1302170997,"province_ab":"LN","province":"辽宁省","town_code":"","town_name":"","taga":"","tagb":"","tagc":"","tagd":"","tage":"","commenta":"","commentb":"","updated":"True","lastModified":{"$date":"2017-05-17T14:12:33.579Z"},"contag":""}
{"_id":{"$oid":"59199e4c2c8c462786757ba8"},"title":"锦州扇形车库","url":"https://site.douban.com/126922/widget/notes/4986652/note/571885078/","author":"scania","latitude":41.1270941009,"longitude":121.1626310816,"province_ab":"LN","province":"辽宁省","town_code":"","town_name":"","taga":"","tagb":"","tagc":"","tagd":"","tage":"","commenta":"","commentb":"","updated":"True","lastModified":{"$date":"2017-05-17T14:12:33.579Z"},"contag":""}
{"_id":{"$oid":"59199e4c2c8c462786757ba9"},"title":"在锦州留存的一些伪满时期建筑","url":"https://site.douban.com/126922/widget/notes/4986652/note/291247602/","author":"scania","latitude":41.1029131502,"longitude":121.0690870207,"province_ab":"LN","province":"辽宁省","town_code":"","town_name":"","taga":"","tagb":"","tagc":"","tagd":"","tage":"","commenta":"","commentb":"","updated":"True","lastModified":{"$date":"2017-05-17T14:12:33.580Z"},"contag":""}
{"_id":{"$oid":"59199e4c2c8c462786757bb0"},"title":"溪田线松树台站","url":"https://site.douban.com/126922/widget/notes/4986652/note/594922244/","author":"scania","latitude":41.3785144597,"longitude":124.04598686,"province_ab":"LN","province":"辽宁省","town_code":"","town_name":"","taga":"","tagb":"","tagc":"","tagd":"","tage":"","commenta":"","commentb":"","updated":"True","lastModified":{"$date":"2017-05-17T14:12:33.580Z"},"contag":""}
{"_id":{"$oid":"59199e4c2c8c462786757bb1"},"title":"回忆一些绿皮车（1）马三家小票","url":"https://www.douban.com/note/345277439/","author":"scania","latitude":41.8986925283,"longitude":123.2375658933,"province_ab":"LN","province":"辽宁省","town_code":"","town_name":"","taga":"","tagb":"","tagc":"","tagd":"","tage":"","commenta":"介绍了永安桥","commentb":"","updated":"True","lastModified":{"$date":"2017-05-17T14:12:33.581Z"},"contag":""}
{"_id":{"$oid":"59199e4c2c8c462786757bb2"},"title":"回忆一些绿皮车（2）旅顺小票：驶向半岛的尽头","url":"https://www.douban.com/note/345917634/","author":"scania","latitude":38.8079215556,"longitude":121.2523276826,"province_ab":"LN","province":"辽宁省","town_code":"","town_name":"","taga":"","tagb":"","tagc":"","tagd":"","tage":"","commenta":"介绍了旅顺一些建筑","commentb":"","updated":"True","lastModified":{"$date":"2017-05-17T14:12:33.581Z"},"contag":""}
{"_id":{"$oid":"59199e4c2c8c462786757bb4"},"title":"镇山脚下的广宁城","url":"https://www.douban.com/photos/album/1633007399/","author":"NAZI","latitude":41.5946561439,"longitude":121.798536722,"province_ab":"LN","province":"辽宁省","town_code":"","town_name":"","taga":"","tagb":"","tagc":"","tagd":"","tage":"","commenta":"","commentb":"","updated":"True","lastModified":{"$date":"2017-05-17T14:12:33.582Z"},"contag":""}
{"_id":{"$oid":"59199e4c2c8c462786757bb5"},"title":"义州佛迹","url":"https://www.douban.com/photos/album/1633000434/","author":"NAZI","latitude":41.5331994107,"longitude":121.2391094097,"province_ab":"LN","province":"辽宁省","town_code":"","town_name":"","taga":"","tagb":"","tagc":"","tagd":"","tage":"","commenta":"","commentb":"","updated":"True","lastModified":{"$date":"2017-05-17T14:12:33.583Z"},"contag":""}
{"_id":{"$oid":"59199e4c2c8c462786757bb6"},"title":"暮春辽中南纪行","url":"https://www.douban.com/photos/album/1632960036/","author":"NAZI","latitude":40.698,"longitude":122.48,"province_ab":"LN","province":"辽宁省","town_code":"","town_name":"","taga":"","tagb":"","tagc":"","tagd":"","tage":"","commenta":"海城、营口、盖州","commentb":"","updated":"True","lastModified":{"$date":"2017-05-17T14:12:33.583Z"},"contag":""}
{"_id":{"$oid":"59199e4c2c8c462786757bb7"},"title":"春游辽国·锦州","url":"https://www.douban.com/note/347638975/","author":"尾黑","latitude":41.0951237083,"longitude":121.1270314104,"province_ab":"LN","province":"辽宁省","town_code":"","town_name":"","taga":"","tagb":"","tagc":"","tagd":"","tage":"","commenta":"","commentb":"","updated":"True","lastModified":{"$date":"2017-05-17T14:12:33.584Z"},"contag":""}
{"_id":{"$oid":"59199e4c2c8c462786757bb8"},"title":"春游辽国·朝阳（一）","url":"https://www.douban.com/note/347658343/","author":"尾黑","latitude":41.5733799063,"longitude":120.4508397907,"province_ab":"LN","province":"辽宁省","town_code":"","town_name":"","taga":"","tagb":"","tagc":"","tagd":"","tage":"","commenta":"","commentb":"","updated":"True","lastModified":{"$date":"2017-05-17T14:12:33.584Z"},"contag":""}
{"_id":{"$oid":"59199e4c2c8c462786757bb9"},"title":"春游辽国·朝阳（二）","url":"https://www.douban.com/note/348233421/","author":"尾黑","latitude":41.1025,"longitude":121.133631,"province_ab":"LN","province":"辽宁省","town_code":"","town_name":"","taga":"","tagb":"","tagc":"","tagd":"","tage":"","commenta":"","commentb":"","updated":"True","lastModified":{"$date":"2017-05-17T14:12:33.585Z"},"contag":""}
{"_id":{"$oid":"59199e4c2c8c462786757bba"},"title":"奉天纺纱厂","url":"https://site.douban.com/126922/widget/notes/4986652/note/209845528/","author":"王泽音","latitude":41.81621,"longitude":123.423593,"province_ab":"LN","province":"辽宁省","town_code":"","town_name":"","taga":"","tagb":"","tagc":"","tagd":"","tage":"","commenta":"","commentb":"","updated":"True","lastModified":{"$date":"2017-05-17T14:12:33.585Z"},"contag":""}
{"_id":{"$oid":"59199e4c2c8c462786757bbc"},"title":"哈尔滨老道外 | 在时间中倾颓","url":"https://www.douban.com/note/542618506/","author":"子文东","latitude":45.8044556469,"longitude":126.8625662496,"province_ab":"HL","province":"黑龙江省","town_code":"","town_name":"","taga":"","tagb":"","tagc":"","tagd":"","tage":"","commenta":"原帖不登陆看不见","commentb":"","updated":"True","lastModified":{"$date":"2017-05-17T14:12:33.586Z"},"contag":""}
{"_id":{"$oid":"59199e4c2c8c462786757bbd"},"title":"【运河穆斯林】运河古镇张家湾","url":"https://www.douban.com/note/591469290/","author":"王东四","latitude":39.8626763652,"longitude":116.7274855129,"province_ab":"BJ","province":"北京市","town_code":"","town_name":"","taga":"","tagb":"","tagc":"","tagd":"","tage":"","commenta":"","commentb":"","updated":"True","lastModified":{"$date":"2017-05-17T14:12:33.587Z"},"contag":""}
{"_id":{"$oid":"59199e4c2c8c462786757bc8"},"title":"【运河穆斯林】沧州清真与大运河","url":"https://www.douban.com/note/594387886/","author":"王东四","latitude":38.305944862,"longitude":116.8641931834,"province_ab":"HE","province":"河北省","town_code":"","town_name":"","taga":"","tagb":"","tagc":"","tagd":"","tage":"","commenta":"北京寺庙祠堂纵览","commentb":"","updated":"True","lastModified":{"$date":"2017-05-17T14:12:33.587Z"},"contag":""}
{"_id":{"$oid":"59199e4c2c8c462786757bc9"},"title":"北京周边——遵化·清东陵","url":"https://www.douban.com/photos/album/139348249/","author":"空错","latitude":40.1306116061,"longitude":117.7039138382,"province_ab":"HE","province":"河北省","town_code":"","town_name":"","taga":"","tagb":"","tagc":"","tagd":"","tage":"","commenta":"一条铁轨划开了一个世纪","commentb":"","updated":"True","lastModified":{"$date":"2017-05-17T14:12:33.588Z"},"contag":""}
{"_id":{"$oid":"59199e4c2c8c462786757bcc"},"title":"我到河北省来之沧州篇","url":"https://www.douban.com/note/297076223/","author":"NAZI","latitude":38.2,"longitude":116.5,"province_ab":"HE","province":"河北","town_code":"","town_name":"","taga":"","tagb":"","tagc":"","tagd":"","tage":"","commenta":"开元寺塔","commentb":"","updated":"True","lastModified":{"$date":"2017-05-17T14:12:33.588Z"},"contag":""}
{"_id":{"$oid":"59199e4c2c8c462786757bcd"},"title":"我到河北省来","url":"https://www.douban.com/photos/album/1639896479/","author":"NAZI","latitude":37.46,"longitude":114.47,"province_ab":"HE","province":"河北","town_code":"","town_name":"","taga":"","tagb":"","tagc":"","tagd":"","tage":"","commenta":"顺平","commentb":"","updated":"True","lastModified":{"$date":"2017-05-17T14:12:33.589Z"},"contag":""}
{"_id":{"$oid":"59199e4c2c8c462786757bce"},"title":"环京畿历史建筑","url":"https://www.douban.com/photos/album/1633495950/","author":"NAZI","latitude":39.23,"longitude":115.43,"province_ab":"HE","province":"河北","town_code":"","town_name":"","taga":"","tagb":"","tagc":"","tagd":"","tage":"","commenta":"赤城","commentb":"","updated":"True","lastModified":{"$date":"2017-05-17T14:12:33.589Z"},"contag":""}
{"_id":{"$oid":"59199e4c2c8c462786757bcf"},"title":"邢台顺德府故城","url":"https://www.douban.com/photos/album/1633375718/","author":"NAZI","latitude":37.03,"longitude":114.29,"province_ab":"HE","province":"河北","town_code":"","town_name":"","taga":"","tagb":"","tagc":"","tagd":"","tage":"","commenta":"顺德府","commentb":"","updated":"True","lastModified":{"$date":"2017-05-17T14:12:33.590Z"},"contag":""}
{"_id":{"$oid":"59199e4c2c8c462786757bd0"},"title":"十一邺城开封流水记","url":"https://www.douban.com/note/540778411/","author":"尾黑","latitude":36.3739774397,"longitude":114.3738993115,"province_ab":"HE","province":"河北","town_code":"","town_name":"","taga":"","tagb":"","tagc":"","tagd":"","tage":"","commenta":"磁县","commentb":"","updated":"True","lastModified":{"$date":"2017-05-17T14:12:33.591Z"},"contag":""}
{"_id":{"$oid":"59199e4c2c8c462786757bd1"},"title":"易县周末游总结","url":"https://www.douban.com/note/236278680/","author":"尾黑","latitude":39.3453073,"longitude":115.4985771,"province_ab":"HE","province":"河北","town_code":"","town_name":"","taga":"","tagb":"","tagc":"","tagd":"","tage":"","commenta":"","commentb":"","updated":"True","lastModified":{"$date":"2017-05-17T14:12:33.592Z"},"contag":""}
{"_id":{"$oid":"59199e4c2c8c462786757bda"},"title":"济南+济宁周末游流水记","url":"https://www.douban.com/note/581616475/","author":"尾黑","latitude":35.40912,"longitude":116.594582,"province_ab":"SD","province":"山东","town_code":"","town_name":"","taga":"","tagb":"","tagc":"","tagd":"","tage":"","commenta":"","commentb":"","updated":"True","lastModified":{"$date":"2017-05-17T14:12:33.593Z"},"contag":""}
{"_id":{"$oid":"59199e4c2c8c462786757bdb"},"title":"山东四日访古＋食饼游 - 青州，章丘，济南，长清（流水帐实践版）","url":"https://www.douban.com/note/147830804/","author":"尾黑","latitude":36.6842896882,"longitude":118.4633468106,"province_ab":"SD","province":"山东","town_code":"","town_name":"","taga":"","tagb":"","tagc":"","tagd":"","tage":"","commenta":"","commentb":"","updated":"True","lastModified":{"$date":"2017-05-17T14:12:33.594Z"},"contag":""}
{"_id":{"$oid":"59199e4c2c8c462786757bdc"},"title":"细说“徐家汇藏书楼”","url":"https://www.douban.com/event/10096818/discussion/1281388/","author":"希腊小庙","latitude":31.1920211757,"longitude":121.4375770538,"province_ab":"SH","province":"上海","town_code":"","town_name":"","taga":"","tagb":"","tagc":"","tagd":"","tage":"","commenta":"","commentb":"","updated":"True","lastModified":{"$date":"2017-05-17T14:12:33.595Z"},"contag":""}
{"_id":{"$oid":"59199e4c2c8c462786757bdd"},"title":"邬达克自宅的一点小研究（上）","url":"https://www.douban.com/note/37377311/","author":"希腊小庙","latitude":31.2078315301,"longitude":121.4295673737,"province_ab":"SH","province":"上海","town_code":"","town_name":"","taga":"","tagb":"","tagc":"","tagd":"","tage":"","commenta":"","commentb":"","updated":"True","lastModified":{"$date":"2017-05-17T14:12:33.596Z"},"contag":""}
{"_id":{"$oid":"59199e4c2c8c462786757bde"},"title":"邬达克自宅的一点小研究（中）","url":"https://www.douban.com/note/37541082/","author":"希腊小庙","latitude":31.2078315301,"longitude":121.4295673737,"province_ab":"SH","province":"上海","town_code":"","town_name":"","taga":"","tagb":"","tagc":"","tagd":"","tage":"","commenta":"","commentb":"","updated":"True","lastModified":{"$date":"2017-05-17T14:12:33.598Z"},"contag":""}
{"_id":{"$oid":"59199e4c2c8c462786757bdf"},"title":"邬达克自宅的一点小研究（下）","url":"https://www.douban.com/note/43937452/","author":"希腊小庙","latitude":31.2078315301,"longitude":121.4295673737,"province_ab":"SH","province":"上海","town_code":"","town_name":"","taga":"","tagb":"","tagc":"","tagd":"","tage":"","commenta":"","commentb":"","updated":"True","lastModified":{"$date":"2017-05-17T14:12:33.598Z"},"contag":""}
{"_id":{"$oid":"59199e4c2c8c462786757be5"},"title":"寻找老上海·大上海计划遗迹","url":"https://www.douban.com/photos/album/1624033431/","author":"子文东","latitude":"","longitude":"","province_ab":"SH","province":"上海","town_code":"","town_name":"","taga":"","tagb":"","tagc":"","tagd":"","tage":"","commenta":"","commentb":"","updated":"True","lastModified":{"$date":"2017-05-17T14:12:33.599Z"},"contag":""}
{"_id":{"$oid":"59199e4c2c8c462786757be6"},"title":"寻找老上海·虹口区","url":"https://www.douban.com/photos/album/1625849023/","author":"子文东","latitude":31.2645232547,"longitude":121.5051601431,"province_ab":"SH","province":"上海","town_code":"","town_name":"","taga":"","tagb":"","tagc":"","tagd":"","tage":"","commenta":"","commentb":"","updated":"True","lastModified":{"$date":"2017-05-17T14:12:33.601Z"},"contag":""}
{"_id":{"$oid":"59199e4c2c8c462786757be7"},"title":"【运河穆斯林】冬日的镇江","url":"https://www.douban.com/note/601946253/","author":"王东四","latitude":32.216346714,"longitude":119.4558244179,"province_ab":"JS","province":"江苏","town_code":"","town_name":"","taga":"","tagb":"","tagc":"","tagd":"","tage":"","commenta":"","commentb":"","updated":"True","lastModified":{"$date":"2017-05-17T14:12:33.602Z"},"contag":""}
{"_id":{"$oid":"59199e4c2c8c462786757be8"},"title":"南京清真逛吃","url":"https://www.douban.com/note/563741915/","author":"王东四","latitude":32.0342751037,"longitude":118.7922422615,"province_ab":"JS","province":"江苏","town_code":"","town_name":"","taga":"","tagb":"","tagc":"","tagd":"","tage":"","commenta":"","commentb":"","updated":"True","lastModified":{"$date":"2017-05-17T14:12:33.603Z"},"contag":""}
{"_id":{"$oid":"59199e4c2c8c462786757be9"},"title":"南京 | 早春灵谷寺","url":"https://www.douban.com/photos/album/1628912070/","author":"子文东","latitude":32.055288424,"longitude":118.8680009357,"province_ab":"JS","province":"江苏","town_code":"","town_name":"","taga":"","tagb":"","tagc":"","tagd":"","tage":"","commenta":"","commentb":"","updated":"True","lastModified":{"$date":"2017-05-17T14:12:33.604Z"},"contag":""}
{"_id":{"$oid":"59199e4c2c8c462786757bea"},"title":"苏州陆巷尺园","url":"https://www.douban.com/note/341595920/","author":"匠心","latitude":31.075126314600002,"longitude":120.36276461530001,"province_ab":"JS","province":"江苏","town_code":"","town_name":"","taga":"","tagb":"","tagc":"","tagd":"","tage":"","commenta":"","commentb":"建筑——园林类","updated":"True","lastModified":{"$date":"2017-05-17T14:12:33.605Z"},"contag":""}
{"_id":{"$oid":"59199e4c2c8c462786757beb"},"title":"无锡寄畅秉礼堂小园随想","url":"https://www.douban.com/note/342862612/","author":"匠心","latitude":31.582356544,"longitude":120.2658217167,"province_ab":"JS","province":"江苏","town_code":"","town_name":"","taga":"","tagb":"","tagc":"","tagd":"","tage":"","commenta":"","commentb":"建筑——园林类","updated":"True","lastModified":{"$date":"2017-05-17T14:12:33.606Z"},"contag":""}
{"_id":{"$oid":"59199e4c2c8c462786757bec"},"title":"句容深山藏古寺（二）--护国圣化隆昌寺","url":"https://www.douban.com/note/208288936/","author":"匠心","latitude":32.130478832899996,"longitude":119.0845776872,"province_ab":"JS","province":"江苏","town_code":"","town_name":"","taga":"","tagb":"","tagc":"","tagd":"","tage":"","commenta":"","commentb":"建筑——古寺类","updated":"True","lastModified":{"$date":"2017-05-17T14:12:33.607Z"},"contag":""}
{"_id":{"$oid":"59199e4c2c8c462786757bed"},"title":"姑苏私家园林","url":"https://www.douban.com/photos/album/1640056416/","author":"NAZI","latitude":31.32,"longitude":120.63,"province_ab":"JS","province":"江苏","town_code":"","town_name":"","taga":"","tagb":"","tagc":"","tagd":"","tage":"","commenta":"留园","commentb":"苏州","updated":"True","lastModified":{"$date":"2017-05-17T14:12:33.609Z"},"contag":""}
{"_id":{"$oid":"59199e4c2c8c462786757bee"},"title":"金陵半日 钟山西北明功臣墓考","url":"https://www.douban.com/note/253639268/","author":"NAZI","latitude":32.11,"longitude":118.87,"province_ab":"JS","province":"江苏","town_code":"","town_name":"","taga":"","tagb":"","tagc":"","tagd":"","tage":"","commenta":"","commentb":"","updated":"True","lastModified":{"$date":"2017-05-17T14:12:33.611Z"},"contag":""}
{"_id":{"$oid":"59199e4c2c8c462786757bef"},"title":"金陵春梦 民国南京","url":"https://www.douban.com/photos/album/1643047405/","author":"NAZI","latitude":32.06,"longitude":118.83,"province_ab":"JS","province":"江苏","town_code":"","town_name":"","taga":"","tagb":"","tagc":"","tagd":"","tage":"","commenta":"南京大屠杀纪念馆","commentb":"","updated":"True","lastModified":{"$date":"2017-05-17T14:12:33.613Z"},"contag":""}
{"_id":{"$oid":"59199e4c2c8c462786757bf0"},"title":"南朝陵墓石刻","url":"https://www.douban.com/photos/album/1633642919/","author":"NAZI","latitude":32.0,"longitude":119.55,"province_ab":"JS","province":"江苏","town_code":"","town_name":"","taga":"","tagb":"","tagc":"","tagd":"","tage":"","commenta":"萧景墓石刻","commentb":"","updated":"True","lastModified":{"$date":"2017-05-17T14:12:33.614Z"},"contag":""}
{"_id":{"$oid":"59199e4c2c8c462786757bf1"},"title":"京口北顾","url":"https://www.douban.com/photos/album/1633144099/","author":"NAZI","latitude":32.2,"longitude":119.42,"province_ab":"JS","province":"江苏","town_code":"","town_name":"","taga":"","tagb":"","tagc":"","tagd":"","tage":"","commenta":"镇江昭关石塔","commentb":"","updated":"True","lastModified":{"$date":"2017-05-17T14:12:33.616Z"},"contag":""}
{"_id":{"$oid":"59199e4c2c8c462786757bf2"},"title":"巨石上的海州文化","url":"https://www.douban.com/photos/album/1631676841/","author":"NAZI","latitude":34.6,"longitude":119.15,"province_ab":"JS","province":"江苏","town_code":"","town_name":"","taga":"","tagb":"","tagc":"","tagd":"","tage":"","commenta":"将军岩崖画","commentb":"","updated":"True","lastModified":{"$date":"2017-05-17T14:12:33.618Z"},"contag":""}
{"_id":{"$oid":"59199e4c2c8c462786757bf3"},"title":"淮水安澜","url":"https://www.douban.com/photos/album/1630939442/","author":"NAZI","latitude":33.49,"longitude":119.15,"province_ab":"JS","province":"江苏","town_code":"","town_name":"","taga":"","tagb":"","tagc":"","tagd":"","tage":"","commenta":"淮安府衙","commentb":"","updated":"True","lastModified":{"$date":"2017-05-17T14:12:33.619Z"},"contag":""}
{"_id":{"$oid":"59199e4c2c8c462786757bf4"},"title":"北上南通州","url":"https://www.douban.com/photos/album/1630243308/","author":"NAZI","latitude":32.08,"longitude":121.05,"province_ab":"JS","province":"江苏","town_code":"","town_name":"","taga":"","tagb":"","tagc":"","tagd":"","tage":"","commenta":"南通曹顶墓","commentb":"","updated":"True","lastModified":{"$date":"2017-05-17T14:12:33.619Z"},"contag":""}
{"_id":{"$oid":"59199e4c2c8c462786757bf5"},"title":"暮春浙南 · 东坑","url":"https://www.douban.com/photos/album/1634132583/","author":"子文东","latitude":27.790800510700002,"longitude":119.7141515484,"province_ab":"ZJ","province":"浙江","town_code":"","town_name":"","taga":"","tagb":"","tagc":"","tagd":"","tage":"","commenta":"","commentb":"","updated":"True","lastModified":{"$date":"2017-05-17T14:12:33.620Z"},"contag":""}
{"_id":{"$oid":"59199e4c2c8c462786757bf6"},"title":"暮春浙南 · 章坑","url":"https://www.douban.com/photos/album/1630099396/","author":"子文东","latitude":27.8092492444,"longitude":119.75268029709999,"province_ab":"ZJ","province":"浙江","town_code":"","town_name":"","taga":"","tagb":"","tagc":"","tagd":"","tage":"","commenta":"","commentb":"","updated":"True","lastModified":{"$date":"2017-05-17T14:12:33.623Z"},"contag":""}
{"_id":{"$oid":"59199e4c2c8c462786757bf7"},"title":"杭州记忆 | 浙大之江校区","url":"https://www.douban.com/note/606788020/","author":"子文东","latitude":30.1922119348,"longitude":120.1244495327,"province_ab":"ZJ","province":"浙江","town_code":"","town_name":"","taga":"","tagb":"","tagc":"","tagd":"","tage":"","commenta":"","commentb":"同名相册：https://www.douban.com/photos/album/1643020726/","updated":"True","lastModified":{"$date":"2017-05-17T14:12:33.623Z"},"contag":""}
{"_id":{"$oid":"59199e4c2c8c462786757bf8"},"title":"丽水乡间 | 不止植物之旅","url":"https://www.douban.com/photos/album/1643211969/?start=43","author":"子文东","latitude":27.751431655100003,"longitude":119.2108339249,"province_ab":"ZJ","province":"浙江","town_code":"","town_name":"","taga":"","tagb":"","tagc":"","tagd":"","tage":"","commenta":"","commentb":"","updated":"True","lastModified":{"$date":"2017-05-17T14:12:33.624Z"},"contag":""}
{"_id":{"$oid":"59199e4c2c8c462786757bf9"},"title":"乌镇:繁华背后，正在消逝的市井","url":"https://www.douban.com/note/605064594/","author":"Lenka","latitude":30.7497852296,"longitude":120.4841168717,"province_ab":"ZJ","province":"浙江","town_code":"","town_name":"","taga":"","tagb":"","tagc":"","tagd":"","tage":"","commenta":"","commentb":"","updated":"True","lastModified":{"$date":"2017-05-17T14:12:33.625Z"},"contag":""}
{"_id":{"$oid":"59199e4c2c8c462786757bfa"},"title":"浙东庙宇记（一）--江边的曹娥庙","url":"https://www.douban.com/note/550624393/","author":"匠心","latitude":29.997436,"longitude":120.87809,"province_ab":"ZJ","province":"浙江","town_code":"","town_name":"","taga":"","tagb":"","tagc":"","tagd":"","tage":"","commenta":"","commentb":"建筑——古庙类","updated":"True","lastModified":{"$date":"2017-05-17T14:12:33.626Z"},"contag":""}
{"_id":{"$oid":"59199e4c2c8c462786757bfb"},"title":"浙东庙宇记（二）-上虞陶朱庙","url":"https://www.douban.com/note/563409867/","author":"匠心","latitude":29.92522,"longitude":120.961868,"province_ab":"ZJ","province":"浙江","town_code":"","town_name":"","taga":"","tagb":"","tagc":"","tagd":"","tage":"","commenta":"","commentb":"建筑——古庙类","updated":"True","lastModified":{"$date":"2017-05-17T14:12:33.627Z"},"contag":""}
{"_id":{"$oid":"59199e4c2c8c462786757bfc"},"title":"绍兴浙东庙宇记(四)---清风岭下清风庙","url":"https://www.douban.com/note/585647117/","author":"匠心","latitude":29.724725,"longitude":120.848766,"province_ab":"ZJ","province":"浙江","town_code":"","town_name":"","taga":"","tagb":"","tagc":"","tagd":"","tage":"","commenta":"","commentb":"建筑——古庙类","updated":"True","lastModified":{"$date":"2017-05-17T14:12:33.641Z"},"contag":""}
{"_id":{"$oid":"59199e4c2c8c462786757bfd"},"title":"绍兴杭绍园亭记（二）---明代私园青藤书屋","url":"https://www.douban.com/note/579698712/","author":"匠心","latitude":30.001089,"longitude":120.585134,"province_ab":"ZJ","province":"浙江","town_code":"","town_name":"","taga":"","tagb":"","tagc":"","tagd":"","tage":"","commenta":"","commentb":"建筑——园林类","updated":"True","lastModified":{"$date":"2017-05-17T14:12:33.642Z"},"contag":""}
{"_id":{"$oid":"59199e4c2c8c462786757bfe"},"title":"绍兴第四回桥之最者-八字桥","url":"https://www.douban.com/note/561350829/","author":"匠心","latitude":30.005865,"longitude":120.597658,"province_ab":"ZJ","province":"浙江","town_code":"","town_name":"","taga":"","tagb":"","tagc":"","tagd":"","tage":"","commenta":"","commentb":"建筑——古桥类","updated":"True","lastModified":{"$date":"2017-05-17T14:12:33.643Z"},"contag":""}
{"_id":{"$oid":"59199e4c2c8c462786757c0a"},"title":"三衢道中","url":"https://www.douban.com/photos/album/1638948691/","author":"NAZI","latitude":28.97,"longitude":118.88,"province_ab":"ZJ","province":"浙江","town_code":"","town_name":"","taga":"","tagb":"","tagc":"","tagd":"","tage":"","commenta":"含衢州及龙游几处建筑，选取衢州市经纬度","commentb":"","updated":"True","lastModified":{"$date":"2017-05-17T14:12:33.644Z"},"contag":""}
{"_id":{"$oid":"59199e4c2c8c462786757c0b"},"title":"绍祚中兴 会稽山","url":"https://www.douban.com/photos/album/1634054565/","author":"NAZI","latitude":30.0,"longitude":120.58,"province_ab":"ZJ","province":"浙江","town_code":"","town_name":"","taga":"","tagb":"","tagc":"","tagd":"","tage":"","commenta":"选取八字桥经纬度","commentb":"","updated":"True","lastModified":{"$date":"2017-05-17T14:12:33.645Z"},"contag":""}
{"_id":{"$oid":"59199e4c2c8c462786757c0c"},"title":"钱塘春行","url":"https://www.douban.com/photos/album/1633961023/","author":"NAZI","latitude":30.26,"longitude":120.19,"province_ab":"ZJ","province":"浙江","town_code":"","town_name":"","taga":"","tagb":"","tagc":"","tagd":"","tage":"","commenta":"选取宝成寺经纬度","commentb":"","updated":"True","lastModified":{"$date":"2017-05-17T14:12:33.646Z"},"contag":""}
{"_id":{"$oid":"59199e4c2c8c462786757c0d"},"title":"湖州飞英","url":"https://www.douban.com/note/328851849/","author":"尾黑","latitude":30.873,"longitude":120.106,"province_ab":"ZJ","province":"浙江","town_code":"","town_name":"","taga":"","tagb":"","tagc":"","tagd":"","tage":"","commenta":"","commentb":"","updated":"True","lastModified":{"$date":"2017-05-17T14:12:33.647Z"},"contag":""}
{"_id":{"$oid":"59199e4c2c8c462786757c0e"},"title":"长兴宋墓","url":"https://www.douban.com/note/319981200/","author":"尾黑","latitude":31.123,"longitude":119.815,"province_ab":"ZJ","province":"浙江","town_code":"","town_name":"","taga":"","tagb":"","tagc":"","tagd":"","tage":"","commenta":"","commentb":"","updated":"True","lastModified":{"$date":"2017-05-17T14:12:33.647Z"},"contag":""}
{"_id":{"$oid":"59199e4c2c8c462786757c0f"},"title":"会稽山阴","url":"https://www.douban.com/photos/album/1635245360/","author":"路遥","latitude":30.03,"longitude":120.58,"province_ab":"ZJ","province":"浙江","town_code":"","town_name":"","taga":"","tagb":"","tagc":"","tagd":"","tage":"","commenta":"","commentb":"","updated":"True","lastModified":{"$date":"2017-05-17T14:12:33.648Z"},"contag":""}
{"_id":{"$oid":"59199e4c2c8c462786757c10"},"title":"皖南余音 | 寻访竹编老手艺","url":"https://www.douban.com/note/594858590/","author":"子文东","latitude":30.237,"longitude":118.818,"province_ab":"AH","province":"安徽","town_code":"","town_name":"","taga":"","tagb":"","tagc":"","tagd":"","tage":"","commenta":"","commentb":"","updated":"True","lastModified":{"$date":"2017-05-17T14:12:33.649Z"},"contag":""}
{"_id":{"$oid":"59199e4c2c8c462786757c11"},"title":"皖南余音 · 老宅","url":"https://www.douban.com/photos/album/1638277802/","author":"子文东","latitude":30.125,"longitude":118.538,"province_ab":"AH","province":"安徽","town_code":"","town_name":"","taga":"","tagb":"","tagc":"","tagd":"","tage":"","commenta":"","commentb":"","updated":"True","lastModified":{"$date":"2017-05-17T14:12:33.650Z"},"contag":""}
{"_id":{"$oid":"59199e4c2c8c462786757c12"},"title":"皖南余音 | 告别平坑桃源村","url":"https://www.douban.com/note/602839772/","author":"子文东","latitude":30.236,"longitude":118.817,"province_ab":"AH","province":"安徽","town_code":"","town_name":"","taga":"","tagb":"","tagc":"","tagd":"","tage":"","commenta":"","commentb":"","updated":"True","lastModified":{"$date":"2017-05-17T14:12:33.652Z"},"contag":""}
{"_id":{"$oid":"59199e4c2c8c462786757c13"},"title":"青阳 · 玫瑰圣母院","url":"https://www.douban.com/photos/album/1638696360/","author":"子文东","latitude":30.64,"longitude":117.863,"province_ab":"AH","province":"安徽","town_code":"","town_name":"","taga":"","tagb":"","tagc":"","tagd":"","tage":"","commenta":"","commentb":"","updated":"True","lastModified":{"$date":"2017-05-17T14:12:33.653Z"},"contag":""}
{"_id":{"$oid":"59199e4c2c8c462786757c14"},"title":"凤阳明中都与临淮古渡","url":"https://www.douban.com/note/582898946/","author":"王东四","latitude":32.881,"longitude":117.583,"province_ab":"AH","province":"安徽","town_code":"","town_name":"","taga":"","tagb":"","tagc":"","tagd":"","tage":"","commenta":"以明中都黄都城与临淮中间点为准","commentb":"","updated":"True","lastModified":{"$date":"2017-05-17T14:12:33.654Z"},"contag":""}
{"_id":{"$oid":"59199e4c2c8c462786757c15"},"title":"淮河边的城市与清真","url":"https://www.douban.com/note/586147826/","author":"王东四","latitude":32.775,"longitude":117.201,"province_ab":"AH","province":"安徽","town_code":"","town_name":"","taga":"","tagb":"","tagc":"","tagd":"","tage":"","commenta":"以蚌埠和淮南中间点为准","commentb":"","updated":"True","lastModified":{"$date":"2017-05-17T14:12:33.654Z"},"contag":""}
{"_id":{"$oid":"59199e4c2c8c462786757c16"},"title":"合肥 大圩 大孔祠堂（礼堂）","url":"https://www.douban.com/note/605053769/","author":"百鬼夜行","latitude":32.773,"longitude":117.376,"province_ab":"AH","province":"安徽","town_code":"","town_name":"","taga":"","tagb":"","tagc":"","tagd":"","tage":"","commenta":"","commentb":"","updated":"True","lastModified":{"$date":"2017-05-17T14:12:33.656Z"},"contag":""}
{"_id":{"$oid":"59199e4c2c8c462786757c17"},"title":"皖北亳州一日游攻略","url":"https://www.douban.com/note/295029375/","author":"NAZI","latitude":33.86,"longitude":116.76,"province_ab":"AH","province":"安徽","town_code":"","town_name":"","taga":"","tagb":"","tagc":"","tagd":"","tage":"","commenta":"","commentb":"","updated":"True","lastModified":{"$date":"2017-05-17T14:12:33.656Z"},"contag":""}
{"_id":{"$oid":"59199e4c2c8c462786757c18"},"title":"无梦徽州--民间建筑","url":"https://www.douban.com/photos/album/1630618566/","author":"NAZI","latitude":29.72,"longitude":118.31,"province_ab":"AH","province":"安徽","town_code":"","town_name":"","taga":"","tagb":"","tagc":"","tagd":"","tage":"","commenta":"","commentb":"","updated":"True","lastModified":{"$date":"2017-05-17T14:12:33.657Z"},"contag":""}
{"_id":{"$oid":"59199e4c2c8c462786757c19"},"title":"无梦徽州--民居祠堂","url":"https://www.douban.com/photos/album/1630298785/","author":"NAZI","latitude":29.72,"longitude":118.31,"province_ab":"AH","province":"安徽","town_code":"","town_name":"","taga":"","tagb":"","tagc":"","tagd":"","tage":"","commenta":"","commentb":"","updated":"True","lastModified":{"$date":"2017-05-17T14:12:33.657Z"},"contag":""}
{"_id":{"$oid":"59199e4c2c8c462786757c1a"},"title":"无梦徽州--牌坊","url":"https://www.douban.com/photos/album/1630604260/","author":"NAZI","latitude":29.88,"longitude":118.44,"province_ab":"AH","province":"安徽","town_code":"","town_name":"","taga":"","tagb":"","tagc":"","tagd":"","tage":"","commenta":"","commentb":"","updated":"True","lastModified":{"$date":"2017-05-17T14:12:33.658Z"},"contag":""}
{"_id":{"$oid":"59199e4c2c8c462786757c1b"},"title":"皖南遗产村落--西递宏村","url":"https://www.douban.com/photos/album/1630117020/","author":"NAZI","latitude":29.93,"longitude":117.92,"province_ab":"AH","province":"安徽","town_code":"","town_name":"","taga":"","tagb":"","tagc":"","tagd":"","tage":"","commenta":"含西递村和宏村两处，选取西递村经纬度","commentb":"","updated":"True","lastModified":{"$date":"2017-05-17T14:12:33.659Z"},"contag":""}
{"_id":{"$oid":"59199e4c2c8c462786757c1c"},"title":"皖江东行","url":"https://www.douban.com/photos/album/1631092859/","author":"NAZI","latitude":31.33,"longitude":118.38,"province_ab":"AH","province":"安徽","town_code":"","town_name":"","taga":"","tagb":"","tagc":"","tagd":"","tage":"","commenta":"含安徽芜湖的圣雅各中学旧址、广济寺、圣母医院旧址、英国领事馆旧址、英国领事官邸旧址、老芜湖海关、内思高级职业学校旧址、天主堂、中江塔、衙署前门、马鞍山朱然家族墓地，选取安徽芜湖经纬度","commentb":"","updated":"True","lastModified":{"$date":"2017-05-17T14:12:33.659Z"},"contag":""}
{"_id":{"$oid":"59199e4c2c8c462786757c1d"},"title":"俯视武昌肌理","url":"https://www.douban.com/note/347105049/","author":"王东四","latitude":30.561,"longitude":114.34,"province_ab":"HB","province":"湖北省","town_code":"","town_name":"","taga":"","tagb":"","tagc":"","tagd":"","tage":"","commenta":"含武昌复兴路，解放路中段、彭刘杨路和解放路路口、花提街、都司湖、后宰门等历史风貌区，选取乾福巷经纬度","commentb":"","updated":"True","lastModified":{"$date":"2017-05-17T14:12:33.660Z"},"contag":""}
{"_id":{"$oid":"59199e4c2c8c462786757c1e"},"title":"迷失老福州","url":"https://www.douban.com/note/533167227/","author":"子文东","latitude":26.046,"longitude":119.31,"province_ab":"FJ","province":"福建","town_code":"","town_name":"","taga":"","tagb":"","tagc":"","tagd":"","tage":"","commenta":"含石厝教堂、保罗克洛代尔故居、乐群楼、烟台山公园、音乐学院旧址，选取石厝教堂经纬度","commentb":"","updated":"True","lastModified":{"$date":"2017-05-17T14:12:33.661Z"},"contag":""}
{"_id":{"$oid":"59199e4c2c8c462786757c1f"},"title":"在鼓浪屿翻墙才是正经事","url":"https://www.douban.com/photos/album/1643171978/","author":"子文东","latitude":24.447,"longitude":118.062,"province_ab":"FJ","province":"福建","town_code":"","town_name":"","taga":"","tagb":"","tagc":"","tagd":"","tage":"","commenta":"","commentb":"","updated":"True","lastModified":{"$date":"2017-05-17T14:12:33.661Z"},"contag":""}
{"_id":{"$oid":"59199e4c2c8c462786757c20"},"title":"下八闽D9 福州船政、马江炮台、乌塔及其他","url":"https://www.douban.com/note/243524519/","author":"NAZI","latitude":25.99,"longitude":119.446,"province_ab":"FJ","province":"福建","town_code":"","town_name":"","taga":"","tagb":"","tagc":"","tagd":"","tage":"","commenta":"含福州船政局、马江海战炮台、烈士墓及昭忠祠、乌塔，选取福州船政局经纬度","commentb":"","updated":"True","lastModified":{"$date":"2017-05-17T14:12:33.662Z"},"contag":""}
{"_id":{"$oid":"59199e4c2c8c462786757c21"},"title":"下八闽D8 陈太尉宫、华林寺、显应宫泥塑、昙石山","url":"https://www.douban.com/note/243007219/","author":"NAZI","latitude":26.076,"longitude":119.29,"province_ab":"FJ","province":"福建","town_code":"","town_name":"","taga":"","tagb":"","tagc":"","tagd":"","tage":"","commenta":"含显应宫泥塑、陈太尉宫、昙石山遗址、华林寺大殿，选取福州市政府经纬度","commentb":"","updated":"True","lastModified":{"$date":"2017-05-17T14:12:33.663Z"},"contag":""}
{"_id":{"$oid":"59199e4c2c8c462786757c22"},"title":"下八闽D7 漳州寮蔡氏民居、福清古迹、弥勒岩、龙江桥","url":"https://www.douban.com/note/242691173/","author":"NAZI","latitude":24.813,"longitude":118.414,"province_ab":"FJ","province":"福建","town_code":"","town_name":"","taga":"","tagb":"","tagc":"","tagd":"","tage":"","commenta":"取起点蔡氏古民居建筑群","commentb":"","updated":"True","lastModified":{"$date":"2017-05-17T14:12:33.664Z"},"contag":""}
{"_id":{"$oid":"59199e4c2c8c462786757c23"},"title":"下八闽D6 泉州市区下篇：开元寺、清净寺、文庙、九日山摩崖","url":"https://www.douban.com/note/242285766/","author":"NAZI","latitude":24.903,"longitude":118.591,"province_ab":"FJ","province":"福建","town_code":"","town_name":"","taga":"","tagb":"","tagc":"","tagd":"","tage":"","commenta":"取起点泉州清净寺","commentb":"","updated":"True","lastModified":{"$date":"2017-05-17T14:12:33.665Z"},"contag":""}
{"_id":{"$oid":"59199e4c2c8c462786757c24"},"title":"下八闽D5 泉州市区上篇：真武庙、天后宫德济门","url":"https://www.douban.com/note/242131200/","author":"NAZI","latitude":24.88,"longitude":118.62,"province_ab":"FJ","province":"福建","town_code":"","town_name":"","taga":"","tagb":"","tagc":"","tagd":"","tage":"","commenta":"取起点泉州真武庙","commentb":"","updated":"True","lastModified":{"$date":"2017-05-17T14:12:33.666Z"},"contag":""}
{"_id":{"$oid":"59199e4c2c8c462786757c25"},"title":"下八闽D4 晋江丁氏宗祠、草庵、安平桥、南安郑成功遗迹","url":"https://www.douban.com/note/241948145/","author":"NAZI","latitude":24.826,"longitude":118.618,"province_ab":"FJ","province":"福建","town_code":"","town_name":"","taga":"","tagb":"","tagc":"","tagd":"","tage":"","commenta":"取起点丁氏宗祠","commentb":"","updated":"True","lastModified":{"$date":"2017-05-17T14:12:33.667Z"},"contag":""}
{"_id":{"$oid":"59199e4c2c8c462786757c26"},"title":"下八闽D3 崇武古城惠安女、洛阳桥、圣墓、老君岩","url":"https://www.douban.com/note/241727520/","author":"NAZI","latitude":24.873,"longitude":118.935,"province_ab":"FJ","province":"福建","town_code":"","town_name":"","taga":"","tagb":"","tagc":"","tagd":"","tage":"","commenta":"取起点崇武古城","commentb":"","updated":"True","lastModified":{"$date":"2017-05-17T14:12:33.668Z"},"contag":""}
{"_id":{"$oid":"59199e4c2c8c462786757c27"},"title":"下八闽D2 莆田三清殿、仙游、惠安","url":"https://www.douban.com/note/241464490/","author":"NAZI","latitude":24.878,"longitude":118.626,"province_ab":"FJ","province":"福建","town_code":"","town_name":"","taga":"","tagb":"","tagc":"","tagd":"","tage":"","commenta":"取闽南巨构三清殿","commentb":"","updated":"True","lastModified":{"$date":"2017-05-17T14:12:33.669Z"},"contag":""}
{"_id":{"$oid":"59199e4c2c8c462786757c28"},"title":"下八闽D1 莆田","url":"https://www.douban.com/note/241251521/","author":"NAZI","latitude":25.435,"longitude":119.018,"province_ab":"FJ","province":"福建","town_code":"","town_name":"","taga":"","tagb":"","tagc":"","tagd":"","tage":"","commenta":"","commentb":"","updated":"True","lastModified":{"$date":"2017-05-17T14:12:33.670Z"},"contag":""}
{"_id":{"$oid":"59199e4c2c8c462786757c29"},"title":"福建行杂记","url":"https://www.douban.com/note/203833826/","author":"尾黑","latitude":34.727,"longitude":112.7897,"province_ab":"FJ","province":"福建","town_code":"","town_name":"","taga":"","tagb":"","tagc":"","tagd":"","tage":"","commenta":"","commentb":"","updated":"True","lastModified":{"$date":"2017-05-17T14:12:33.671Z"},"contag":""}
{"_id":{"$oid":"59199e4c2c8c462786757c2a"},"title":"漳州南靖土楼","url":"https://www.douban.com/photos/album/1618299528/","author":"路遥","latitude":24.515,"longitude":117.357,"province_ab":"FJ","province":"福建","town_code":"","town_name":"","taga":"","tagb":"","tagc":"","tagd":"","tage":"","commenta":"","commentb":"","updated":"True","lastModified":{"$date":"2017-05-17T14:12:33.672Z"},"contag":""}
{"_id":{"$oid":"59199e4c2c8c462786757c2b"},"title":"景德镇 · 废厂","url":"https://www.douban.com/photos/album/1639305270/","author":"子文东","latitude":29.269,"longitude":117.178,"province_ab":"JX","province":"江西","town_code":"","town_name":"","taga":"","tagb":"","tagc":"","tagd":"","tage":"","commenta":"","commentb":"","updated":"True","lastModified":{"$date":"2017-05-17T14:12:33.673Z"},"contag":""}
{"_id":{"$oid":"59199e4c2c8c462786757c2c"},"title":"景德镇 · 老街","url":"https://www.douban.com/photos/album/1639323105/","author":"子文东","latitude":29.269,"longitude":117.178,"province_ab":"JX","province":"江西","town_code":"","town_name":"","taga":"","tagb":"","tagc":"","tagd":"","tage":"","commenta":"老街坐标","commentb":"","updated":"True","lastModified":{"$date":"2017-05-17T14:12:33.674Z"},"contag":""}
{"_id":{"$oid":"59199e4c2c8c462786757c2d"},"title":"谁解山中味，世间无桃源","url":"https://www.douban.com/doulist/44535134/","author":"子文东","latitude":22.008,"longitude":100.08,"province_ab":"YN","province":"云南","town_code":"","town_name":"","taga":"","tagb":"","tagc":"","tagd":"","tage":"","commenta":"西双版纳","commentb":"","updated":"True","lastModified":{"$date":"2017-05-17T14:12:33.675Z"},"contag":""}
{"_id":{"$oid":"59199e4c2c8c462786757c2e"},"title":"在滇缅边境 | 沿着史迪威公路","url":"https://www.douban.com/photos/album/1636464413/","author":"子文东","latitude":25.021,"longitude":98.491,"province_ab":"YN","province":"云南","town_code":"","town_name":"","taga":"","tagb":"","tagc":"","tagd":"","tage":"","commenta":"取起点腾冲","commentb":"","updated":"True","lastModified":{"$date":"2017-05-17T14:12:33.676Z"},"contag":""}
{"_id":{"$oid":"59199e4c2c8c462786757c2f"},"title":"老宅司马第 | 和顺","url":"https://www.douban.com/photos/album/1636450243/","author":"子文东","latitude":25.008,"longitude":98.458,"province_ab":"YN","province":"云南","town_code":"","town_name":"","taga":"","tagb":"","tagc":"","tagd":"","tage":"","commenta":"","commentb":"","updated":"True","lastModified":{"$date":"2017-05-17T14:12:33.677Z"},"contag":""}
{"_id":{"$oid":"59199e4c2c8c462786757c30"},"title":"春城踏秋","url":"https://www.douban.com/photos/album/1632777241/","author":"NAZI","latitude":25.04,"longitude":102.73,"province_ab":"YN","province":"云南","town_code":"","town_name":"","taga":"","tagb":"","tagc":"","tagd":"","tage":"","commenta":"图册多地， 取云南昆明陆军讲武堂","commentb":"","updated":"True","lastModified":{"$date":"2017-05-17T14:12:33.678Z"},"contag":""}
{"_id":{"$oid":"59199e4c2c8c462786757c31"},"title":"文献名邦古石屏","url":"https://www.douban.com/photos/album/1632568118/","author":"NAZI","latitude":23.73,"longitude":102.78,"province_ab":"YN","province":"云南","town_code":"","town_name":"","taga":"","tagb":"","tagc":"","tagd":"","tage":"","commenta":"图册多地 ，取云南石屏来鹤亭","commentb":"","updated":"True","lastModified":{"$date":"2017-05-17T14:12:33.679Z"},"contag":""}
{"_id":{"$oid":"59199e4c2c8c462786757c32"},"title":"个碧石与滇南米轨线","url":"https://www.douban.com/photos/album/1632576338/","author":"NAZI","latitude":23.36,"longitude":103.41,"province_ab":"YN","province":"云南","town_code":"","town_name":"","taga":"","tagb":"","tagc":"","tagd":"","tage":"","commenta":"","commentb":"","updated":"True","lastModified":{"$date":"2017-05-17T14:12:33.680Z"},"contag":""}
{"_id":{"$oid":"59199e4c2c8c462786757c33"},"title":"滇南邹鲁--建水临安","url":"https://www.douban.com/photos/album/1632572404/","author":"NAZI","latitude":23.64,"longitude":102.79,"province_ab":"YN","province":"云南","town_code":"","town_name":"","taga":"","tagb":"","tagc":"","tagd":"","tage":"","commenta":"图册多地，取马家营见龙桥","commentb":"","updated":"True","lastModified":{"$date":"2017-05-17T14:12:33.681Z"},"contag":""}
{"_id":{"$oid":"59199e4c2c8c462786757c34"},"title":"临夏：大拱北（祁家拱北）","url":"https://www.douban.com/photos/photo/2406708578/","author":"百鬼夜行","latitude":35.597,"longitude":103.201,"province_ab":"GS","province":"甘肃","town_code":"","town_name":"","taga":"","tagb":"","tagc":"","tagd":"","tage":"","commenta":"","commentb":"","updated":"True","lastModified":{"$date":"2017-05-17T14:12:33.682Z"},"contag":""}
{"_id":{"$oid":"59199e4c2c8c462786757c35"},"title":"临夏：国拱北","url":"https://www.douban.com/photos/photo/2407136901/","author":"百鬼夜行","latitude":35.596,"longitude":103.201,"province_ab":"GS","province":"甘肃","town_code":"","town_name":"","taga":"","tagb":"","tagc":"","tagd":"","tage":"","commenta":"","commentb":"","updated":"True","lastModified":{"$date":"2017-05-17T14:12:33.683Z"},"contag":""}
{"_id":{"$oid":"59199e4c2c8c462786757c36"},"title":"破碎与聚合 泾州vs青州","url":"https://www.douban.com/photos/album/1636345292/","author":"NAZI","latitude":36.646,"longitude":118.443,"province_ab":"GS","province":"甘肃","town_code":"","town_name":"","taga":"","tagb":"","tagc":"","tagd":"","tage":"","commenta":"两地相隔远，取青州，泾州（35.345，107.356）","commentb":"","updated":"True","lastModified":{"$date":"2017-05-17T14:12:33.684Z"},"contag":""}
{"_id":{"$oid":"59199e4c2c8c462786757c37"},"title":"凉州 银武威","url":"https://www.douban.com/photos/album/1636257852/","author":"NAZI","latitude":37.94,"longitude":102.61,"province_ab":"GS","province":"甘肃","town_code":"","town_name":"","taga":"","tagb":"","tagc":"","tagd":"","tage":"","commenta":"","commentb":"","updated":"True","lastModified":{"$date":"2017-05-17T14:12:33.685Z"},"contag":""}
{"_id":{"$oid":"59199e4c2c8c462786757c38"},"title":"甘州 金张掖","url":"https://www.douban.com/photos/album/1635918115/","author":"NAZI","latitude":38.93,"longitude":100.46,"province_ab":"GS","province":"甘肃","town_code":"","town_name":"","taga":"","tagb":"","tagc":"","tagd":"","tage":"","commenta":"","commentb":"","updated":"True","lastModified":{"$date":"2017-05-17T14:12:33.685Z"},"contag":""}
{"_id":{"$oid":"59199e4c2c8c462786757c39"},"title":"丝路 天水陇西","url":"https://www.douban.com/photos/album/1635670617/","author":"NAZI","latitude":34.6,"longitude":105.69,"province_ab":"GS","province":"甘肃","town_code":"","town_name":"","taga":"","tagb":"","tagc":"","tagd":"","tage":"","commenta":"","commentb":"","updated":"True","lastModified":{"$date":"2017-05-17T14:12:33.686Z"},"contag":""}
{"_id":{"$oid":"59199e4c2c8c462786757c3a"},"title":"陇东二日游","url":"https://www.douban.com/photos/album/1643534978/","author":"NAZI","latitude":36.03,"longitude":107.88,"province_ab":"GS","province":"甘肃","town_code":"","town_name":"","taga":"","tagb":"","tagc":"","tagd":"","tage":"","commenta":"庆阳","commentb":"","updated":"True","lastModified":{"$date":"2017-05-17T14:12:33.687Z"},"contag":""}
{"_id":{"$oid":"59199e4c2c8c462786757c3b"},"title":"泾州石窟寺","url":"https://www.douban.com/photos/album/1642675005/","author":"NAZI","latitude":35.31,"longitude":107.38,"province_ab":"GS","province":"甘肃","town_code":"","town_name":"","taga":"","tagb":"","tagc":"","tagd":"","tage":"","commenta":"庆阳","commentb":"","updated":"True","lastModified":{"$date":"2017-05-17T14:12:33.688Z"},"contag":""}
{"_id":{"$oid":"59199e4c2c8c462786757c3c"},"title":"西北偏北","url":"https://www.douban.com/photos/album/1622098221/","author":"NAZI","latitude":35.95,"longitude":103.3,"province_ab":"GS","province":"甘肃","town_code":"","town_name":"","taga":"","tagb":"","tagc":"","tagd":"","tage":"","commenta":"","commentb":"","updated":"True","lastModified":{"$date":"2017-05-17T14:12:33.689Z"},"contag":""}
{"_id":{"$oid":"59199e4c2c8c462786757c3d"},"title":"河西消暑（一）石窟、壁画墓（@敦煌+瓜州）","url":"https://www.douban.com/note/514161985/","author":"尾黑","latitude":39.975,"longitude":94.365,"province_ab":"GS","province":"甘肃","town_code":"","town_name":"","taga":"","tagb":"","tagc":"","tagd":"","tage":"","commenta":"","commentb":"","updated":"True","lastModified":{"$date":"2017-05-17T14:12:33.692Z"},"contag":""}
{"_id":{"$oid":"59199e4c2c8c462786757c3e"},"title":"河西消暑（二）石窟、壁画墓、寺庙（@嘉峪关+张掖+乐都）","url":"https://www.douban.com/note/514170283/","author":"尾黑","latitude":38.925,"longitude":100.449,"province_ab":"GS","province":"甘肃","town_code":"","town_name":"","taga":"","tagb":"","tagc":"","tagd":"","tage":"","commenta":"","commentb":"","updated":"True","lastModified":{"$date":"2017-05-17T14:12:33.693Z"},"contag":""}
{"_id":{"$oid":"59199e4c2c8c462786757c3f"},"title":"河西消暑（三）七一冰川（@嘉峪关）","url":"https://www.douban.com/note/535542601/","author":"尾黑","latitude":"","longitude":"","province_ab":"","province":"甘肃","town_code":"","town_name":"","taga":"","tagb":"","tagc":"","tagd":"","tage":"","commenta":"自然风景， 去掉","commentb":"","updated":"True","lastModified":{"$date":"2017-05-17T14:12:33.694Z"},"contag":""}
{"_id":{"$oid":"59199e4c2c8c462786757c40"},"title":"河西消暑（四）两个人的岗什卡（@门源）","url":"https://www.douban.com/note/535686090/","author":"尾黑","latitude":"","longitude":"","province_ab":"","province":"甘肃","town_code":"","town_name":"","taga":"","tagb":"","tagc":"","tagd":"","tage":"","commenta":"自然风景， 去掉","commentb":"","updated":"True","lastModified":{"$date":"2017-05-17T14:12:33.695Z"},"contag":""}
{"_id":{"$oid":"59199e4c2c8c462786757c41"},"title":"吴忠：同心县 清真大寺","url":"https://www.douban.com/photos/photo/2406679359/","author":"百鬼夜行","latitude":36.98,"longitude":105.914,"province_ab":"NX","province":"宁夏","town_code":"","town_name":"","taga":"","tagb":"","tagc":"","tagd":"","tage":"","commenta":"","commentb":"","updated":"True","lastModified":{"$date":"2017-05-17T14:12:33.696Z"},"contag":""}
{"_id":{"$oid":"59199e4c2c8c462786757c42"},"title":"清明流水账B 银川附近的旅行攻略","url":"https://www.douban.com/note/273814646/","author":"NAZI","latitude":38.47,"longitude":106.27,"province_ab":"NX","province":"宁夏","town_code":"","town_name":"","taga":"","tagb":"","tagc":"","tagd":"","tage":"","commenta":"","commentb":"","updated":"True","lastModified":{"$date":"2017-05-17T14:12:33.697Z"},"contag":""}
{"_id":{"$oid":"59199e4c2c8c462786757c43"},"title":"清明流水账A 吴忠 青铜峡 永宁","url":"https://www.douban.com/note/273638637/","author":"NAZI","latitude":37.99,"longitude":106.21,"province_ab":"NX","province":"宁夏","town_code":"","town_name":"","taga":"","tagb":"","tagc":"","tagd":"","tage":"","commenta":"","commentb":"","updated":"True","lastModified":{"$date":"2017-05-17T14:12:33.698Z"},"contag":""}
{"_id":{"$oid":"59199e4c2c8c462786757c44"},"title":"宁夏的宁夏","url":"https://www.douban.com/photos/album/1635425708/","author":"NAZI","latitude":38.47,"longitude":106.27,"province_ab":"NX","province":"宁夏","town_code":"","town_name":"","taga":"","tagb":"","tagc":"","tagd":"","tage":"","commenta":"","commentb":"","updated":"True","lastModified":{"$date":"2017-05-17T14:12:33.699Z"},"contag":""}
{"_id":{"$oid":"59199e4c2c8c462786757c45"},"title":"2016新疆游(一)伊宁、霍城","url":"https://www.douban.com/note/572715632/","author":"王东四","latitude":43.916,"longitude":81.324,"province_ab":"XJ","province":"新疆","town_code":"","town_name":"","taga":"","tagb":"","tagc":"","tagd":"","tage":"","commenta":"","commentb":"","updated":"True","lastModified":{"$date":"2017-05-17T14:12:33.700Z"},"contag":""}
{"_id":{"$oid":"59199e4c2c8c462786757c46"},"title":"2016新疆游(二)昭苏、新源","url":"https://www.douban.com/note/573664332/","author":"王东四","latitude":43.916,"longitude":81.324,"province_ab":"XJ","province":"新疆","town_code":"","town_name":"","taga":"","tagb":"","tagc":"","tagd":"","tage":"","commenta":"","commentb":"","updated":"True","lastModified":{"$date":"2017-05-17T14:12:33.701Z"},"contag":""}
{"_id":{"$oid":"59199e4c2c8c462786757c47"},"title":"2016新疆游(三)和静、焉耆","url":"https://www.douban.com/note/574179375/","author":"王东四","latitude":41.764,"longitude":86.145,"province_ab":"XJ","province":"新疆","town_code":"","town_name":"","taga":"","tagb":"","tagc":"","tagd":"","tage":"","commenta":"","commentb":"","updated":"True","lastModified":{"$date":"2017-05-17T14:12:33.702Z"},"contag":""}
{"_id":{"$oid":"59199e4c2c8c462786757c48"},"title":"氹仔天后宫","url":"https://www.douban.com/note/95526936/","author":"希腊小庙","latitude":22.152,"longitude":113.555,"province_ab":"MO","province":"澳门","town_code":"","town_name":"","taga":"","tagb":"","tagc":"","tagd":"","tage":"","commenta":"民间小庙","commentb":"","updated":"True","lastModified":{"$date":"2017-05-17T14:12:33.703Z"},"contag":""}
{"_id":{"$oid":"59199e4c2c8c462786757c4b"},"title":"川西藏区行 色达","url":"https://www.douban.com/note/313945542/","author":"NAZI","latitude":32.3,"longitude":100.35,"province_ab":"SC","province":"四川","town_code":"","town_name":"","taga":"","tagb":"","tagc":"","tagd":"","tage":"","commenta":"色达县","commentb":"","updated":"True","lastModified":{"$date":"2017-05-17T14:12:33.704Z"},"contag":""}
{"_id":{"$oid":"59199e4c2c8c462786757c53"},"title":"川渝行杂记·通州","url":"https://www.douban.com/note/263282265/","author":"尾黑","latitude":31.208,"longitude":107.467,"province_ab":"SC","province":"四川","town_code":"","town_name":"","taga":"","tagb":"","tagc":"","tagd":"","tage":"","commenta":"","commentb":"","updated":"True","lastModified":{"$date":"2017-05-17T14:12:33.707Z"},"contag":""}
{"_id":{"$oid":"59199e4c2c8c462786757c54"},"title":"巴蜀佛国 之 大足篇","url":"https://www.douban.com/photos/album/106863031/","author":"尾黑","latitude":29.6546054309,"longitude":105.7411394165,"province_ab":"CQ","province":"重庆","town_code":"","town_name":"","taga":"","tagb":"","tagc":"","tagd":"","tage":"","commenta":"","commentb":"","updated":"True","lastModified":{"$date":"2017-05-17T14:12:33.708Z"},"contag":""}
{"_id":{"$oid":"59199e4c2c8c462786757c55"},"title":"黑白重庆","url":"https://www.douban.com/photos/album/1643936056/","author":"路遥","latitude":29.5647049443,"longitude":106.5507444657,"province_ab":"CQ","province":"重庆","town_code":"","town_name":"","taga":"","tagb":"","tagc":"","tagd":"","tage":"","commenta":"","commentb":"","updated":"True","lastModified":{"$date":"2017-05-17T14:12:33.708Z"},"contag":""}
{"_id":{"$oid":"59199e4c2c8c462786757c56"},"title":"嵩山脚下南岳庙","url":"https://www.douban.com/note/326414161/","author":"NAZI","latitude":34.376369,"longitude":112.978848,"province_ab":"HA","province":"河南","town_code":"","town_name":"","taga":"","tagb":"","tagc":"","tagd":"","tage":"","commenta":"登封市大金店镇","commentb":"","updated":"True","lastModified":{"$date":"2017-05-17T14:12:33.709Z"},"contag":""}
{"_id":{"$oid":"59199e4c2c8c462786757c57"},"title":"豫中襄县老城、小商桥和彼岸寺经幢","url":"https://www.douban.com/note/317364897/","author":"NAZI","latitude":33.86,"longitude":113.46,"province_ab":"HA","province":"河南","town_code":"","town_name":"","taga":"","tagb":"","tagc":"","tagd":"","tage":"","commenta":"许昌市襄县","commentb":"","updated":"True","lastModified":{"$date":"2017-05-17T14:12:33.710Z"},"contag":""}
{"_id":{"$oid":"59199e4c2c8c462786757c58"},"title":"天地之中 万岁登封","url":"https://www.douban.com/photos/album/1638356817/","author":"NAZI","latitude":34.46,"longitude":113.02,"province_ab":"HA","province":"河南","town_code":"","town_name":"","taga":"","tagb":"","tagc":"","tagd":"","tage":"","commenta":"","commentb":"","updated":"True","lastModified":{"$date":"2017-05-17T14:12:33.711Z"},"contag":""}
{"_id":{"$oid":"59199e4c2c8c462786757c59"},"title":"便下襄阳向洛阳","url":"https://www.douban.com/photos/album/1634857829/","author":"NAZI","latitude":34.7,"longitude":112.44,"province_ab":"HA","province":"河南","town_code":"","town_name":"","taga":"","tagb":"","tagc":"","tagd":"","tage":"","commenta":"","commentb":"","updated":"True","lastModified":{"$date":"2017-05-17T14:12:33.712Z"},"contag":""}
{"_id":{"$oid":"59199e4c2c8c462786757c5a"},"title":"新--郑韩故城","url":"https://www.douban.com/photos/album/1632636557/","author":"NAZI","latitude":34.4,"longitude":113.71,"province_ab":"HA","province":"河南","town_code":"","town_name":"","taga":"","tagb":"","tagc":"","tagd":"","tage":"","commenta":"","commentb":"","updated":"True","lastModified":{"$date":"2017-05-17T14:12:33.713Z"},"contag":""}
{"_id":{"$oid":"59199e4c2c8c462786757c5b"},"title":"巩县石刻艺术","url":"https://www.douban.com/photos/album/134198574/","author":"NAZI","latitude":34.77,"longitude":112.95,"province_ab":"HA","province":"河南","town_code":"","town_name":"","taga":"","tagb":"","tagc":"","tagd":"","tage":"","commenta":"","commentb":"","updated":"True","lastModified":{"$date":"2017-05-17T14:12:33.714Z"},"contag":""}
{"_id":{"$oid":"59199e4c2c8c462786757c5c"},"title":"宋都汴梁","url":"https://www.douban.com/photos/album/1632861792/","author":"NAZI","latitude":34.79,"longitude":114.35,"province_ab":"HA","province":"河南","town_code":"","town_name":"","taga":"","tagb":"","tagc":"","tagd":"","tage":"","commenta":"","commentb":"","updated":"True","lastModified":{"$date":"2017-05-17T14:12:33.714Z"},"contag":""}
{"_id":{"$oid":"59199e4c2c8c462786757c5e"},"title":"偃师+巩义tips","url":"https://www.douban.com/note/203833826/","author":"尾黑","latitude":34.722311,"longitude":112.872451,"province_ab":"HA","province":"河南","town_code":"","town_name":"","taga":"","tagb":"","tagc":"","tagd":"","tage":"","commenta":"","commentb":"","updated":"True","lastModified":{"$date":"2017-05-17T14:12:33.715Z"},"contag":""}
{"_id":{"$oid":"59199e4c2c8c462786757c5f"},"title":"呼和浩特 召庙文化和佛塔","url":"https://www.douban.com/note/319645218/","author":"NAZI","latitude":40.8,"longitude":111.66,"province_ab":"NM","province":"内蒙古","town_code":"","town_name":"","taga":"","tagb":"","tagc":"","tagd":"","tage":"","commenta":"","commentb":"","updated":"True","lastModified":{"$date":"2017-05-17T14:12:33.716Z"},"contag":""}
{"_id":{"$oid":"59199e4c2c8c462786757c60"},"title":"呼和浩特 衙署和多元宗教文化","url":"https://www.douban.com/note/319735953/","author":"NAZI","latitude":40.8,"longitude":111.66,"province_ab":"NM","province":"内蒙古","town_code":"","town_name":"","taga":"","tagb":"","tagc":"","tagd":"","tage":"","commenta":"","commentb":"","updated":"True","lastModified":{"$date":"2017-05-17T14:12:33.718Z"},"contag":""}
{"_id":{"$oid":"59199e4c2c8c462786757c61"},"title":"美岱召、五当召","url":"https://www.douban.com/note/279685420/","author":"NAZI","latitude":40.57,"longitude":110.55,"province_ab":"NM","province":"内蒙古","town_code":"","town_name":"","taga":"","tagb":"","tagc":"","tagd":"","tage":"","commenta":"包头市","commentb":"","updated":"True","lastModified":{"$date":"2017-05-17T14:12:33.719Z"},"contag":""}
{"_id":{"$oid":"59199e4c2c8c462786757c62"},"title":"春游辽国·辽中京（一）：舔跪大明塔","url":"https://www.douban.com/note/552057765/","author":"尾黑","latitude":41.579099,"longitude":119.169544,"province_ab":"NM","province":"内蒙古","town_code":"","town_name":"","taga":"","tagb":"","tagc":"","tagd":"","tage":"","commenta":"","commentb":"","updated":"True","lastModified":{"$date":"2017-05-17T14:12:33.720Z"},"contag":""}
{"_id":{"$oid":"59199e4c2c8c462786757c63"},"title":"春游辽国·辽中京（二）：脑洞大明塔","url":"https://www.douban.com/note/552926874/","author":"尾黑","latitude":41.579099,"longitude":119.169544,"province_ab":"NM","province":"内蒙古","town_code":"","town_name":"","taga":"","tagb":"","tagc":"","tagd":"","tage":"","commenta":"","commentb":"","updated":"True","lastModified":{"$date":"2017-05-17T14:12:33.721Z"},"contag":""}
{"_id":{"$oid":"59199e4c2c8c462786757c64"},"title":"岭表风物志","url":"https://www.douban.com/photos/album/1640353137/","author":"NAZI","latitude":23.12,"longitude":113.28,"province_ab":"GD","province":"广东","town_code":"","town_name":"","taga":"","tagb":"","tagc":"","tagd":"","tage":"","commenta":"佛山","commentb":"","updated":"True","lastModified":{"$date":"2017-05-17T14:12:33.722Z"},"contag":""}
{"_id":{"$oid":"59199e4c2c8c462786757c65"},"title":"开平碉楼和岭南骑楼民居","url":"https://www.douban.com/photos/album/149429054/","author":"NAZI","latitude":22.36,"longitude":112.68,"province_ab":"GD","province":"广东","town_code":"","town_name":"","taga":"","tagb":"","tagc":"","tagd":"","tage":"","commenta":"","commentb":"","updated":"True","lastModified":{"$date":"2017-05-17T14:12:33.723Z"},"contag":""}
{"_id":{"$oid":"59199e4c2c8c462786757c66"},"title":"广州记忆 | 中山大学","url":"https://www.douban.com/photos/album/1643134586/","author":"子文东","latitude":23.105052,"longitude":113.304974,"province_ab":"GD","province":"广东","town_code":"","town_name":"","taga":"","tagb":"","tagc":"","tagd":"","tage":"","commenta":"","commentb":"","updated":"True","lastModified":{"$date":"2017-05-17T14:12:33.724Z"},"contag":""}
{"_id":{"$oid":"59199e4c2c8c462786757c67"},"title":"武汉三镇的近代建筑","url":"https://www.douban.com/photos/album/1636706250/","author":"NAZI","latitude":30.52,"longitude":114.31,"province_ab":"HB","province":"湖北","town_code":"","town_name":"","taga":"","tagb":"","tagc":"","tagd":"","tage":"","commenta":"","commentb":"","updated":"True","lastModified":{"$date":"2017-05-17T14:12:33.725Z"},"contag":""}
{"_id":{"$oid":"59199e4c2c8c462786757c68"},"title":"疾行左冯翊","url":"https://www.douban.com/photos/album/1635578233/","author":"NAZI","latitude":35.18,"longitude":109.93,"province_ab":"SN","province":"陕西","town_code":"","town_name":"","taga":"","tagb":"","tagc":"","tagd":"","tage":"","commenta":"澄城，合阳","commentb":"","updated":"True","lastModified":{"$date":"2017-05-17T14:12:33.726Z"},"contag":""}
{"_id":{"$oid":"59199e4c2c8c462786757c69"},"title":"津门故里","url":"https://www.douban.com/photos/album/137541769/","author":"NAZI","latitude":39.13,"longitude":117.2,"province_ab":"TJ","province":"天津","town_code":"","town_name":"","taga":"","tagb":"","tagc":"","tagd":"","tage":"","commenta":"","commentb":"","updated":"True","lastModified":{"$date":"2017-05-17T14:12:33.727Z"},"contag":""}
{"_id":{"$oid":"59199e4c2c8c462786757c6a"},"title":"不仅仅是旅行~","url":"https://www.douban.com/photos/album/33577703/?start=90","author":"NAZI","latitude":"","longitude":"","province_ab":"","province":"全国","town_code":"","town_name":"","taga":"","tagb":"","tagc":"","tagd":"","tage":"","commenta":"","commentb":"","updated":"True","lastModified":{"$date":"2017-05-17T14:12:33.728Z"},"contag":""}
{"_id":{"$oid":"59199e4c2c8c462786757c6b"},"title":"作为车迷","url":"https://www.douban.com/photos/album/46150070/","author":"NAZI","latitude":"","longitude":"","province_ab":"","province":"全国","town_code":"","town_name":"","taga":"","tagb":"","tagc":"","tagd":"","tage":"","commenta":"","commentb":"","updated":"True","lastModified":{"$date":"2017-05-17T14:12:33.729Z"},"contag":""}
{"_id":{"$oid":"59199e4c2c8c462786757c6c"},"title":"一年一相册","url":"https://www.douban.com/photos/album/40183466/","author":"NAZI","latitude":"","longitude":"","province_ab":"","province":"全国","town_code":"","town_name":"","taga":"","tagb":"","tagc":"","tagd":"","tage":"","commenta":"","commentb":"","updated":"True","lastModified":{"$date":"2017-05-17T14:12:33.730Z"},"contag":""}
{"_id":{"$oid":"59199e4c2c8c462786757c6d"},"title":"塔啊！是塔啊！","url":"https://www.douban.com/photos/album/1641378843/","author":"袁无涯","latitude":"","longitude":"","province_ab":"","province":"全国","town_code":"","town_name":"","taga":"","tagb":"","tagc":"","tagd":"","tage":"","commenta":"","commentb":"","updated":"True","lastModified":{"$date":"2017-05-17T14:12:33.731Z"},"contag":""}
{"_id":{"$oid":"59199e4c2c8c462786757c6e"},"title":"雪中南禅寺 · 山西","url":"https://www.douban.com/photos/album/1640506020/","author":"子文东","latitude":38.7012304033,"longitude":113.1214010735,"province_ab":"SX","province":"山西省","town_code":"140922C","town_name":"五台县","taga":"A1","tagb":"B1","tagc":"C2\u0026C3","tagd":"","tage":"","commenta":"","commentb":"","updated":"True","lastModified":{"$date":"2017-05-17T13:54:33.416Z"},"contag":"AI1AJ1AK2AK3"}
{"_id":{"$oid":"59199e4c2c8c462786757c6f"},"title":"辛卯年晋东南古建考察——各殿面貌概况","url":"https://www.douban.com/photos/album/1629980070/","author":"層云","latitude":36.1958035364,"longitude":113.1164809812,"province_ab":"","province":"山西","town_code":"140400C","town_name":"长治市","taga":"","tagb":"","tagc":"","tagd":"","tage":"","commenta":"长子县、平顺县、潞城县","commentb":"","updated":"True","lastModified":{"$date":"2017-05-17T14:12:33.731Z"},"contag":""}
{"_id":{"$oid":"59199e4c2c8c462786757c70"},"title":"明代宝光塔石刻砖雕艺术","url":"https://www.douban.com/photos/album/1642134376/","author":"層云","latitude":21.9181061474,"longitude":110.8533841166,"province_ab":"","province":"广东","town_code":"440981C","town_name":"高州市","taga":"","tagb":"","tagc":"","tagd":"","tage":"","commenta":"","commentb":"","updated":"True","lastModified":{"$date":"2017-05-17T14:12:33.732Z"},"contag":""}
{"_id":{"$oid":"59199e4c2c8c462786757c71"},"title":"崇陵--清西陵（光绪）","url":"https://www.douban.com/photos/album/1623138329/","author":"層云","latitude":39.3512625579,"longitude":115.3512657638,"province_ab":"","province":"河北","town_code":"130600C","town_name":"保定市","taga":"","tagb":"","tagc":"","tagd":"","tage":"","commenta":"","commentb":"","updated":"True","lastModified":{"$date":"2017-05-17T14:12:33.733Z"},"contag":""}
{"_id":{"$oid":"59199e4c2c8c462786757c72"},"title":"癸巳秋南京、扬州之行（五）——淮扬宅园","url":"https://www.douban.com/photos/album/122155076/","author":"層云","latitude":32.3936145941,"longitude":119.4126699901,"province_ab":"","province":"江苏省","town_code":"321000C","town_name":"扬州市","taga":"","tagb":"","tagc":"","tagd":"","tage":"","commenta":"南京市、扬州市","commentb":"","updated":"True","lastModified":{"$date":"2017-05-17T14:12:33.734Z"},"contag":""}
{"_id":{"$oid":"59199e4c2c8c462786757c73"},"title":"癸巳年秋南京、扬州之旅","url":"https://www.douban.com/photos/album/121558097/","author":"層云","latitude":32.0583898428,"longitude":118.7964667635,"province_ab":"","province":"江苏省","town_code":"320100C","town_name":"南京市","taga":"","tagb":"","tagc":"","tagd":"","tage":"","commenta":"","commentb":"","updated":"True","lastModified":{"$date":"2017-05-17T14:12:33.735Z"},"contag":""}
{"_id":{"$oid":"59199e4c2c8c462786757c74"},"title":"鉴江陈迹：江氏伯西祠 / 高州石鼓镇","url":"https://www.douban.com/photos/album/1639654385/","author":"層云","latitude":21.822437,"longitude":110.7725964341,"province_ab":"","province":"广东","town_code":"440981C","town_name":"高州市石鼓镇","taga":"","tagb":"","tagc":"","tagd":"","tage":"","commenta":"","commentb":"","updated":"True","lastModified":{"$date":"2017-05-17T14:12:33.735Z"},"contag":""}
{"_id":{"$oid":"59199e4c2c8c462786757c75"},"title":"泰陵——清西陵（雍正）","url":"https://www.douban.com/photos/album/1617907304/","author":"層云","latitude":39.3492548555,"longitude":115.4984890709,"province_ab":"","province":"河北","town_code":"130633C","town_name":"易县","taga":"","tagb":"","tagc":"","tagd":"","tage":"","commenta":"","commentb":"","updated":"True","lastModified":{"$date":"2017-05-17T14:12:33.737Z"},"contag":""}
{"_id":{"$oid":"59199e4c2c8c462786757c76"},"title":"辛卯年晋东南古建考察——各殿梁架丁栿整理","url":"https://www.douban.com/photos/album/81124088/","author":"層云","latitude":36.1958035364,"longitude":113.1164809812,"province_ab":"","province":"山西","town_code":"140400C","town_name":"长治市","taga":"","tagb":"","tagc":"","tagd":"","tage":"","commenta":"平顺县、","commentb":"","updated":"True","lastModified":{"$date":"2017-05-17T14:12:33.738Z"},"contag":""}
{"_id":{"$oid":"59199e4c2c8c462786757c77"},"title":"甲午年暑北方四市游","url":"https://www.douban.com/photos/album/148191097/","author":"層云","latitude":40.8415671817,"longitude":111.7519553111,"province_ab":"","province":"内蒙古","town_code":"150100C","town_name":"呼和浩特","taga":"","tagb":"","tagc":"","tagd":"","tage":"","commenta":"呼和浩特","commentb":"","updated":"True","lastModified":{"$date":"2017-05-17T14:12:33.739Z"},"contag":""}
{"_id":{"$oid":"59199e4c2c8c462786757c78"},"title":"归乡小记|庙、桥和家乡","url":"http://www.dwz.cn/5HGegJ","author":"林毓鹏","latitude":25.320721,"longitude":118.29503,"province_ab":"","province":"福建","town_code":"350500C","town_name":"泉州市、永春县","taga":"","tagb":"","tagc":"","tagd":"","tage":"","commenta":"","commentb":"","lastModified":{"$date":"2017-05-17T14:12:33.740Z"},"updated":"True","contag":""}
{"_id":{"$oid":"59199e4c2c8c462786757c79"},"title":"归乡小记|酿造一种名为“绍兴”的生活","url":"http://www.dwz.cn/5HGfGO","author":"邢丝琦","latitude":29.997117,"longitude":120.582112,"province_ab":"","province":"浙江","town_code":"330600C","town_name":"绍兴市、安城","taga":"","tagb":"","tagc":"","tagd":"","tage":"","commenta":"","commentb":"","lastModified":{"$date":"2017-05-17T14:12:33.741Z"},"updated":"True","contag":""}
{"_id":{"$oid":"59199e4c2c8c462786757c7a"},"title":"归乡小记|扩展中的地景","url":"https://www.douban.com/note/606250774/","author":"隔溪山","latitude":32.041544,"longitude":118.767413,"province_ab":"","province":"江苏","town_code":"320100C","town_name":"南京市","taga":"","tagb":"","tagc":"","tagd":"","tage":"","commenta":"","commentb":"","updated":"True","lastModified":{"$date":"2017-05-17T14:12:33.742Z"},"contag":""}
{"_id":{"$oid":"59199e4c2c8c462786757c7b"},"title":"归乡小记|福建霞浦：日出照映，西霞之浦","url":"http://www.dwz.cn/5HGenq","author":"王韩霖","latitude":26.882068,"longitude":120.005214,"province_ab":"","province":"福建","town_code":"350900C","town_name":"宁德市、霞浦县","taga":"","tagb":"","tagc":"","tagd":"","tage":"","commenta":"","commentb":"","lastModified":{"$date":"2017-05-17T14:12:33.743Z"},"updated":"True","contag":""}
{"_id":{"$oid":"59199e4c2c8c462786757c7c"},"title":"归乡小记｜泉州：关于那些暂存的过去","url":"http://www.dwz.cn/5HGeEv","author":"杨欣欣、林毓鹏","latitude":24.908853,"longitude":118.589421,"province_ab":"","province":"福建","town_code":"350500C","town_name":"泉州市","taga":"","tagb":"","tagc":"","tagd":"","tage":"","commenta":"","commentb":"","lastModified":{"$date":"2017-05-17T14:12:33.744Z"},"updated":"True","contag":""}
{"_id":{"$oid":"59199e4c2c8c462786757c7d"},"title":"归乡小记｜杭州：西湖光环下的市井里弄","url":"http://www.dwz.cn/5HGftk","author":"小楠","latitude":30.287459,"longitude":120.153576,"province_ab":"","province":"浙江","town_code":"330100C","town_name":"杭州市","taga":"","tagb":"","tagc":"","tagd":"","tage":"","commenta":"","commentb":"","lastModified":{"$date":"2017-05-17T14:12:33.746Z"},"updated":"True","contag":""}
{"_id":{"$oid":"59199e4c2c8c462786757c7e"},"title":"楠溪三章","url":"https://www.douban.com/note/573107229/","author":"隔溪山","latitude":28.153886,"longitude":120.690968,"province_ab":"","province":"浙江","town_code":"330300C","town_name":"温州市、永嘉县","taga":"","tagb":"","tagc":"","tagd":"","tage":"","commenta":"","commentb":"","updated":"True","lastModified":{"$date":"2017-05-17T14:12:33.747Z"},"contag":""}
{"_id":{"$oid":"59199e4c2c8c462786757c7f"},"title":"归乡小记｜国境之南：佛山","url":"http://www.dwz.cn/5HGeY7","author":"许思琪","latitude":23.028762,"longitude":113.122717,"province_ab":"","province":"广东","town_code":"440600C","town_name":"佛山市","taga":"","tagb":"","tagc":"","tagd":"","tage":"","commenta":"","commentb":"","lastModified":{"$date":"2017-05-17T14:12:33.748Z"},"updated":"True","contag":""}
{"_id":{"$oid":"59199e4c2c8c462786757c80"},"title":"归乡小记｜饭桌上的团圆","url":"http://www.dwz.cn/5HGfo9","author":"丁巨擎","latitude":30.162932,"longitude":120.27069,"province_ab":"","province":"浙江","town_code":"330100C","town_name":"杭州市、萧山区","taga":"","tagb":"","tagc":"","tagd":"","tage":"","commenta":"","commentb":"","lastModified":{"$date":"2017-05-17T14:12:33.748Z"},"updated":"True","contag":""}
{"_id":{"$oid":"59199e4c2c8c462786757c81"},"title":"归乡小记｜乡亲父老说：你返咗嚟喇！","url":"http://www.dwz.cn/5HGeLt","author":"林文健","latitude":22.521113,"longitude":113.382391,"province_ab":"","province":"广东","town_code":"442000C","town_name":"中山市","taga":"","tagb":"","tagc":"","tagd":"","tage":"","commenta":"","commentb":"","lastModified":{"$date":"2017-05-17T14:12:33.749Z"},"updated":"True","contag":""}
{"_id":{"$oid":"59199e4c2c8c462786757c82"},"title":"温州近代建筑","url":"https://www.douban.com/photos/album/1624205628/","author":"断肠人在刷牙","latitude":"","longitude":"","province_ab":"","province":"浙江","town_code":"330300C","town_name":"温州","taga":"","tagb":"","tagc":"","tagd":"","tage":"","commenta":"近代建筑","commentb":"","updated":"True","lastModified":{"$date":"2017-05-17T14:12:33.750Z"},"contag":""}
{"_id":{"$oid":"59199e4c2c8c462786757c83"},"title":"温州古建筑","url":"https://www.douban.com/photos/album/145777712/","author":"断肠人在刷牙","latitude":"","longitude":"","province_ab":"","province":"浙江","town_code":"330300C","town_name":"温州","taga":"","tagb":"","tagc":"","tagd":"","tage":"","commenta":"古建筑","commentb":"","updated":"True","lastModified":{"$date":"2017-05-17T14:12:33.750Z"},"contag":""}
{"_id":{"$oid":"59199e4c2c8c462786757c84"},"title":"小城乐清","url":"https://www.douban.com/photos/album/130199459/","author":"断肠人在刷牙","latitude":"","longitude":"","province_ab":"","province":"浙江","town_code":"330382C","town_name":"乐清","taga":"","tagb":"","tagc":"","tagd":"","tage":"","commenta":"风景 人文","commentb":"","updated":"True","lastModified":{"$date":"2017-05-17T14:12:33.751Z"},"contag":""}
{"_id":{"$oid":"59199e4c2c8c462786757c85"},"title":"云南古建筑","url":"https://www.douban.com/photos/album/1629778703/","author":"断肠人在刷牙","latitude":"","longitude":"","province_ab":"","province":"云南","town_code":"","town_name":"","taga":"","tagb":"","tagc":"","tagd":"","tage":"","commenta":"古建筑","commentb":"","updated":"True","lastModified":{"$date":"2017-05-17T14:12:33.752Z"},"contag":""}
{"_id":{"$oid":"59199e4c2c8c462786757c86"},"title":"苍洱之间","url":"https://www.douban.com/photos/album/124286878/","author":"断肠人在刷牙","latitude":"","longitude":"","province_ab":"","province":"云南","town_code":"532901C","town_name":"大理","taga":"","tagb":"","tagc":"","tagd":"","tage":"","commenta":"风景 人文","commentb":"","updated":"True","lastModified":{"$date":"2017-05-17T14:12:33.752Z"},"contag":""}
{"_id":{"$oid":"59199e4c2c8c462786757c87"},"title":"越南越美~河内旧城","url":"https://www.douban.com/photos/album/1644706501/?start=6","author":"NAZI","latitude":21.030774,"longitude":105.852821,"province_ab":"","province":"越南河内","town_code":"","town_name":"","taga":"","tagb":"","tagc":"","tagd":"","tage":"","commenta":"","commentb":"","updated":"True","lastModified":{"$date":"2017-05-17T14:12:33.753Z"},"contag":""}
{"_id":{"$oid":"59199e4c2c8c462786757c88"},"title":"越南越美~胡朝时期的城堡","url":"https://www.douban.com/photos/album/1644654942/","author":"NAZI","latitude":20.074602,"longitude":105.60662,"province_ab":"","province":"越南清化","town_code":"","town_name":"","taga":"","tagb":"","tagc":"","tagd":"","tage":"","commenta":"","commentb":"","updated":"True","lastModified":{"$date":"2017-05-17T14:12:33.754Z"},"contag":""}
{"_id":{"$oid":"59199e4c2c8c462786757c89"},"title":"越南越美~宁平\u0026发艳教区","url":"https://www.douban.com/photos/album/1644303645/","author":"NAZI","latitude":20.092764,"longitude":106.080117,"province_ab":"","province":"越南宁平","town_code":"","town_name":"","taga":"","tagb":"","tagc":"","tagd":"","tage":"","commenta":"","commentb":"","updated":"True","lastModified":{"$date":"2017-05-17T14:12:33.755Z"},"contag":""}
{"_id":{"$oid":"59199e4c2c8c462786757c8a"},"title":"越南越美~会安、美山","url":"https://www.douban.com/photos/album/1644076279/?start=26","author":"NAZI","latitude":15.880058,"longitude":108.338047,"province_ab":"","province":"越南会安","town_code":"","town_name":"","taga":"","tagb":"","tagc":"","tagd":"","tage":"","commenta":"","commentb":"","updated":"True","lastModified":{"$date":"2017-05-17T14:12:33.756Z"},"contag":""}
{"_id":{"$oid":"59199e4c2c8c462786757c8b"},"title":"越南越美~皇都顺化","url":"https://www.douban.com/photos/album/1644934280/","author":"NAZI","latitude":16.4498,"longitude":107.56235,"province_ab":"","province":"越南顺化","town_code":"","town_name":"","taga":"","tagb":"","tagc":"","tagd":"","tage":"","commenta":"","commentb":"","updated":"True","lastModified":{"$date":"2017-05-17T14:12:33.757Z"},"contag":""}
{"_id":{"$oid":"59199e4c2c8c462786757c8c"},"title":"越南越美~北越古建雕塑","url":"https://www.douban.com/photos/album/1645123752/","author":"NAZI","latitude":21.030774,"longitude":105.852821,"province_ab":"","province":"越南北部","town_code":"","town_name":"","taga":"","tagb":"","tagc":"","tagd":"","tage":"","commenta":"","commentb":"","updated":"True","lastModified":{"$date":"2017-05-17T14:12:33.758Z"},"contag":""}
{"_id":{"$oid":"59199e4c2c8c462786757c8d"},"title":"第一站 大运河南段","url":"https://www.douban.com/photos/album/1639597316/","author":"僧盐","latitude":34.2043945878,"longitude":117.2857487834,"province_ab":"JS","province":"江苏","town_code":"320300C","town_name":"徐州市","taga":"A1\u0026A2\u0026A4\u0026A5\u0026A6","tagb":"B1\u0026B2\u0026B3\u0026B4\u0026B5\u0026B6\u0026B7","tagc":"C1\u0026C2\u0026C3\u0026C4\u0026C5\u0026C6","tagd":"","tage":"","commenta":"","commentb":"","updated":"True","lastModified":{"$date":"2017-05-17T13:54:33.430Z"},"contag":"AI1AI2AI4AI5AI6AJ1AJ2AJ3AJ4AJ5AJ6AJ7AK1AK2AK3AK4AK5AK6"}
{"_id":{"$oid":"59199e4c2c8c462786757c8e"},"title":"第二站 黄山","url":"https://www.douban.com/photos/album/1639610975/","author":"僧盐","latitude":30.1240249372,"longitude":118.1619379835,"province_ab":"AH","province":"安徽","town_code":"341003C","town_name":"黄山区","taga":"A6","tagb":"B6","tagc":"C6","tagd":"","tage":"","commenta":"","commentb":"","updated":"True","lastModified":{"$date":"2017-05-17T13:54:33.431Z"},"contag":"AI6AJ6AK6"}
{"_id":{"$oid":"59199e4c2c8c462786757c8f"},"title":"第三站 蒜溪","url":"https://www.douban.com/photos/album/1639618951/?start=0","author":"僧盐","latitude":25.459273,"longitude":119.119102,"province_ab":"FJ","province":"福建","town_code":"350303C","town_name":"涵江区","taga":"A2","tagb":"B1","tagc":"C1\u0026C2\u0026C3","tagd":"","tage":"","commenta":"","commentb":"","updated":"True","lastModified":{"$date":"2017-05-17T13:54:33.432Z"},"contag":"AI2AJ1AK1AK2AK3"}
{"_id":{"$oid":"59199e4c2c8c462786757c90"},"title":"第四站 社旗","url":"https://www.douban.com/photos/album/1639615576/?start=0","author":"僧盐","latitude":33.056126,"longitude":112.938279,"province_ab":"HN","province":"河南","town_code":"411327C","town_name":"社旗县","taga":"A2","tagb":"B1","tagc":"C1\u0026C2\u0026C3\u0026C5","tagd":"","tage":"","commenta":"","commentb":"","updated":"True","lastModified":{"$date":"2017-05-17T13:54:33.433Z"},"contag":"AI2AJ1AK1AK2AK3AK5"}
{"_id":{"$oid":"59199e4c2c8c462786757c91"},"title":"第五站，楚楚","url":"https://www.douban.com/photos/album/1639631409/?start=0","author":"僧盐","latitude":30.584355,"longitude":114.298572,"province_ab":"HB","province":"湖北","town_code":"420100C","town_name":"武汉市","taga":"A1\u0026A2\u0026A6","tagb":"B1\u0026B3","tagc":"C1\u0026C2\u0026C4\u0026","tagd":"","tage":"","commenta":"","commentb":"","updated":"True","lastModified":{"$date":"2017-05-17T13:54:33.434Z"},"contag":"AI1AI2AI6AJ1AJ3AK1AK2AK4"}
{"_id":{"$oid":"59199e4c2c8c462786757c92"},"title":"第六站，开封","url":"https://www.douban.com/photos/album/1639663244/","author":"僧盐","latitude":34.797049,"longitude":114.341447,"province_ab":"HN","province":"河南","town_code":"410200C","town_name":"开封市","taga":"A1\u0026A2\u0026A3","tagb":"B1\u0026B5","tagc":"C1\u0026C2\u0026C3","tagd":"","tage":"","commenta":"","commentb":"","updated":"True","lastModified":{"$date":"2017-05-17T13:54:33.435Z"},"contag":"AI1AI2AI3AJ1AJ5AK1AK2AK3"}
{"_id":{"$oid":"59199e4c2c8c462786757c93"},"title":"第七站 芋圆八卦","url":"https://www.douban.com/photos/album/1639699261/","author":"僧盐","latitude":29.210065,"longitude":119.460521,"province_ab":"ZJ","province":"金华","town_code":"330781C","town_name":"兰溪市","taga":"A2","tagb":"B1","tagc":"C2\u0026C3","tagd":"","tage":"","commenta":"","commentb":"","updated":"True","lastModified":{"$date":"2017-05-17T13:54:33.436Z"},"contag":"AI2AJ1AK2AK3"}
{"_id":{"$oid":"59199e4c2c8c462786757c94"},"title":"第八站 香港","url":"https://www.douban.com/photos/album/1639791493/","author":"僧盐","latitude":22.320048,"longitude":114.173355,"province_ab":"XG","province":"香港","town_code":"810000C","town_name":"香港","taga":"A6","tagb":"B7","tagc":"C6","tagd":"","tage":"","commenta":"","commentb":"","updated":"True","lastModified":{"$date":"2017-05-17T13:54:33.438Z"},"contag":"AI6AJ7AK6"}
{"_id":{"$oid":"59199e4c2c8c462786757c95"},"title":"第九站，南海","url":"https://www.douban.com/photos/album/1639796556/","author":"僧盐","latitude":23.031562,"longitude":113.145577,"province_ab":"GD","province":"广东","town_code":"440605C","town_name":"南海区","taga":"A1\u0026A6","tagb":"B1\u0026B7","tagc":"C1\u0026C2\u0026C3","tagd":"","tage":"","commenta":"","commentb":"","updated":"True","lastModified":{"$date":"2017-05-17T13:54:33.439Z"},"contag":"AI1AI6AJ1AJ7AK1AK2AK3"}
{"_id":{"$oid":"59199e4c2c8c462786757c96"},"title":"第十站，旌德黄田","url":"https://www.douban.com/photos/album/1639885153/","author":"僧盐","latitude":30.288057,"longitude":118.543081,"province_ab":"AH","province":"安徽","town_code":"341825C","town_name":"旌德县","taga":"A1","tagb":"B3","tagc":"C1\u0026C2","tagd":"","tage":"","commenta":"","commentb":"","updated":"True","lastModified":{"$date":"2017-05-17T13:54:33.442Z"},"contag":"AI1AJ3AK1AK2"}
{"_id":{"$oid":"59199e4c2c8c462786757c97"},"title":"第十一站 第一州","url":"https://www.douban.com/photos/album/1639935611/","author":"僧盐","latitude":30.50883,"longitude":117.043551,"province_ab":"AH","province":"安徽","town_code":"340800C","town_name":"安庆市","taga":"A1\u0026A2","tagb":"B1\u0026B5","tagc":"C3\u0026C6","tagd":"","tage":"","commenta":"","commentb":"","updated":"True","lastModified":{"$date":"2017-05-17T13:54:33.443Z"},"contag":"AI1AI2AJ1AJ5AK3AK6"}
{"_id":{"$oid":"59199e4c2c8c462786757c98"},"title":"第十二站，南浔乌镇","url":"https://www.douban.com/photos/album/1639988210/","author":"僧盐","latitude":30.872742,"longitude":120.417195,"province_ab":"ZJ","province":"浙江","town_code":"330503C","town_name":"南浔区","taga":"A2","tagb":"B1\u0026B3\u0026B4","tagc":"C1\u0026C2\u0026C3","tagd":"","tage":"","commenta":"","commentb":"","updated":"True","lastModified":{"$date":"2017-05-17T13:54:33.445Z"},"contag":"AI2AJ1AJ3AJ4AK1AK2AK3"}
{"_id":{"$oid":"59199e4c2c8c462786757c99"},"title":"第十三站，古代蔚县","url":"https://www.douban.com/photos/album/1640334080/","author":"僧盐","latitude":39.837181,"longitude":114.582695,"province_ab":"HB","province":"河北","town_code":"130726C","town_name":"蔚县","taga":"A2","tagb":"B1\u0026B2","tagc":"C1\u0026C2\u0026C3\u0026C5","tagd":"","tage":"","commenta":"","commentb":"","updated":"True","lastModified":{"$date":"2017-05-17T13:54:33.446Z"},"contag":"AI2AJ1AJ2AK1AK2AK3AK5"}
{"_id":{"$oid":"59199e4c2c8c462786757c9a"},"title":"第十五站，济南","url":"https://www.douban.com/photos/album/1641094359/","author":"僧盐","latitude":36.665261,"longitude":116.994895,"province_ab":"SD","province":"山东","town_code":"250000C","town_name":"济南市","taga":"A1\u0026A2","tagb":"B1\u0026B7","tagc":"C1\u0026C2\u0026C3","tagd":"","tage":"","commenta":"","commentb":"","updated":"True","lastModified":{"$date":"2017-05-17T13:54:33.447Z"},"contag":"AI1AI2AJ1AJ7AK1AK2AK3"}
{"_id":{"$oid":"59199e4c2c8c462786757c9b"},"title":"第十六站，石敢当","url":"https://www.douban.com/photos/album/1641094806/","author":"僧盐","latitude":36.257053,"longitude":117.090183,"province_ab":"SD","province":"山东","town_code":"271000C","town_name":"泰安市","taga":"A1\u0026A2","tagb":"B1\u0026B2\u0026B3","tagc":"C1\u0026C2\u0026C3","tagd":"","tage":"","commenta":"","commentb":"","updated":"True","lastModified":{"$date":"2017-05-17T13:54:33.448Z"},"contag":"AI1AI2AJ1AJ2AJ3AK1AK2AK3"}
{"_id":{"$oid":"59199e4c2c8c462786757c9c"},"title":"第十七站，彩虹绍兴","url":"https://www.douban.com/photos/album/1641099151/","author":"僧盐","latitude":30.030271,"longitude":120.58021,"province_ab":"ZJ","province":"浙江","town_code":"312000C","town_name":"绍兴市","taga":"A1\u0026A2","tagb":"B1\u0026B7","tagc":"C1\u0026C2\u0026C3","tagd":"","tage":"","commenta":"","commentb":"","updated":"True","lastModified":{"$date":"2017-05-17T13:54:33.449Z"},"contag":"AI1AI2AJ1AJ7AK1AK2AK3"}
{"_id":{"$oid":"59199e4c2c8c462786757c9d"},"title":"第十八站，济宁","url":"https://www.douban.com/photos/album/1641117231/","author":"僧盐","latitude":35.414606,"longitude":116.587236,"province_ab":"SD","province":"山东","town_code":"272000C","town_name":"济宁市","taga":"A1","tagb":"B1\u0026B3\u0026B6","tagc":"C1\u0026C2\u0026C3\u0026C4","tagd":"","tage":"","commenta":"","commentb":"","updated":"True","lastModified":{"$date":"2017-05-17T13:54:33.452Z"},"contag":"AI1AJ1AJ3AJ6AK1AK2AK3AK4"}
{"_id":{"$oid":"59199e4c2c8c462786757c9e"},